ID,Y1,YN,nYEARS,lastMeasurement,LAT,LON,STATION_LOC,TTYPE,TIMEZONE,OWNER,OWNERNAME,COUNTRY,HULL,PAYLOAD,FORECAST,NOTE
0Y2W3,2012,2015,4,2015-08-18T11:40:00Z,44.794,-87.313,"Sturgeon Bay CG Station, WI",Weather Station,C,CG,U.S.C.G. Marine Reporting Stations,US,,,,
18CI3,2014,2015,2,2015-09-21T13:25:00Z,41.73,-86.91,"Michigan City CG Station, IN",Weather Station,E,CG,U.S.C.G. Marine Reporting Stations,US,,,,
20CM4,2014,2015,2,2015-09-20T16:55:00Z,42.09,-86.49,"St. Joseph CG Station, MI",Weather Station,E,CG,U.S.C.G. Marine Reporting Stations,US,,,,
23020,2008,2010,3,2010-12-18T11:50:00Z,22.162,38.5,Red Sea,Buoy,?,KA,King Abdullah University for Science and Tech (KAUST),SA,2.8DX1,WAMDAS payload,,
31201,2005,2005,1,2005-08-19T15:00:00Z,-27.705,-48.134,"Floripa, Brazil (109)",Waverider Buoy,?,R,SCRIPPS,US,,,,
32012,2007,2018,12,2018-04-09T11:50:00Z,-19.616,-85.384,Woods Hole Stratus Wave Station,2.4-meter discus buoy,C,WH,Woods Hole Oceanographic Institution,US,,WAMDAS payload,,MET data from this station is available at <a title=32st0 href=https://www.ndbc.noaa.gov/station_page.php?station=32st0>32ST0</a>.
32301,1984,1986,3,1986-07-12T16:00:00Z,-9.9,-105.2,,3-meter discus buoy,C,N,NDBC,US,,DACT payload,,
32302,1986,1995,10,1995-04-03T12:00:00Z,-18,-85.1,,3-meter discus buoy,C,N,NDBC,US,,DACT payload,,
32487,2008,2010,3,2010-01-08T20:25:00Z,3.517,-77.737,"Buenaventura, Colombia",Offshore Buoy,E,DC,DIMAR Colombia - CCCP,CO,,,,
32488,2008,2009,2,2009-10-16T02:10:00Z,6.258,-77.511,"Bahia Solano, Colombia",Offshore Buoy,E,DC,DIMAR Colombia - CCCP,CO,,,,
34002,2017,2018,2,2018-05-15T17:45:00Z,-55,-90,OOI Southern Ocean Buoy,Moored Buoy,C,OO,NSF Ocean Observatories Initiative,US,,,,
41001,1976,2025,48,2025-10-28T19:20:00Z,34.675,-72.698,EAST HATTERAS - 150 NM East of Cape Hatteras,3-meter foam buoy,E,N,NDBC,US,3DV31,SCOOP payload,FZNT22.KWBC,
41002,1973,2026,52,2026-02-10T10:30:00Z,31.887,-74.921,SOUTH HATTERAS - 225 NM South of Cape Hatteras,3-meter foam buoy,E,N,NDBC,US,3DV12,SCOOP payload,FZNT22.KWBC,"Right whales are active off SC from November to April. Speed restrictions of 10 knots apply to vessels 65 feet or greater in specific areas and times along the U.S. East Coast. It is illegal to approach right whales within 500 yards. To learn more about right whales and rules protecting them, go to: <a href=http://www.nmfs.noaa.gov/pr/shipstrike>http://www.nmfs.noaa.gov/pr/shipstrike</a>."
41003,1977,1982,5,1982-01-06T23:00:00Z,30.4,-80.1,,6-meter NOMAD buoy,E,N,NDBC,US,,MVXII payload,,(formerly eb05)
41004,1978,2026,38,2026-02-10T10:30:00Z,32.501,-79.099,"EDISTO - 41 NM Southeast of Charleston, SC",3-meter foam buoy,E,N,NDBC,US,3DV02,SCOOP payload,FZNT22.KWBC FZUS52.KCHS,"Right whales are active off SC from November to April. Speed restrictions of 10 knots apply to vessels 65 feet or greater in specific areas and times along the U.S. East Coast. It is illegal to approach right whales within 500 yards. To learn more about right whales and rules protecting them, go to: <a href=http://www.nmfs.noaa.gov/pr/shipstrike>http://www.nmfs.noaa.gov/pr/shipstrike</a>.<br />"
41005,1979,1982,4,1982-01-18T16:00:00Z,31.7,-79.7,,6-meter NOMAD buoy,E,N,NDBC,US,,GSBP payload,,
41006,1982,1996,15,1996-04-21T23:00:00Z,29.3,-77.4,,6-meter NOMAD buoy,E,N,NDBC,US,,GSBP payload,,
41007,1986,1986,1,1986-04-01T16:00:00Z,34.2,-76.5,,3-meter discus buoy,E,N,NDBC,US,,DACT payload,,
41008,1988,2026,35,2026-02-10T10:30:00Z,31.402,-80.869,"GRAYS REEF - 40 NM Southeast of Savannah, GA",3-meter discus buoy,E,N,NDBC,US,3D36,SCOOP payload,FZUS52.KCHS,"<p>This buoy is located in <a href=http://www.graysreef.noaa.gov/ shape=rect>Gray's Reef National Marine Sanctuary</a></p> <p>The southern third of NOAA's 22-square mile Gray's Reef National Marine Sanctuary has been designated a research area specifically designed for conducting controlled scientific studies where human activities cannot affect the results. Fishing and diving will be prohibited in the lightly used, 8-square mile research area. Vessels are permitted to travel through it without stopping. For complete information, go to the Gray's Reef website at <a title=Grays Reef style=font-size: 9pt; href=https://graysreef.noaa.gov/science/research-area.html  shape=rect>Gray's Reef Research Area</a></p> <p>LINK TO PMEL's pCO2 SITE for their data on this Station: <br /><a title=Grays Reef (41008) href=http://www.pmel.noaa.gov/co2/story/Grays+Reef shape=rect>http://www.pmel.noaa.gov/co2/story/Grays+Reef</a></p>Right whales are active off GA from November to April. Speed restrictions of 10 knots apply to vessels 65 feet or greater within the vicinity of this station between November 15 and April 15.  It is illegal to approach right whales within 500 yards.  To learn more about right whales and rules protecting them, go to: <a href=http://www.nmfs.noaa.gov/pr/shipstrike>http://www.nmfs.noaa.gov/pr/shipstrike</a>.<br />"
41009,1988,2026,39,2026-02-10T10:30:00Z,28.519,-80.166,"CANAVERAL 20 NM East of Cape Canaveral, FL",3-meter discus buoy,E,N,NDBC,US,3D65,SCOOP payload,FZUS52.KMLB,"Right whales are active off FL from November to April. Speed restrictions of 10 knots apply to vessels 65 feet or greater in specific areas and times along the U.S. East Coast.  It is illegal to approach right whales within 500 yards.  To learn more about right whales and rules protecting them, go to: <a href=http://www.nmfs.noaa.gov/pr/shipstrike>http://www.nmfs.noaa.gov/pr/shipstrike</a>.<br /><br />"
41010,1988,2025,38,2025-07-31T23:50:00Z,28.906,-78.471,CANAVERAL EAST - 120NM East of Cape Canaveral,3-meter discus buoy,E,N,NDBC,US,3D41,SCOOP payload,FZNT23.KNHC,"As of 0100z, 7/6/25, the buoy from station 41010 has gone adrift. To see the latest position from the buoy, click <a href=http://www.ndbc.noaa.gov/nws_special/41010.txt target=_blank>here.</a>"
41011,1989,1989,1,1989-10-17T20:00:00Z,28.2,-80.1,,6-meter NOMAD buoy,E,N,NDBC,US,,DACT payload,,
41012,2002,2014,13,2014-02-19T12:50:00Z,30.041,-80.533,"St. Augustine, FL 40NM ENE of St Augustine, FL",3-meter discus buoy,E,N,NDBC,US,3DV13,AMPS payload,FZUS52.KJAX,"<p>See the notice on loss of funding from the Coastal Storms Program for this station:<br style=widows: 2; text-transform: none; background-color: rgb(255, 255, 255); text-indent: 0px; letter-spacing: normal; font-style: normal; font-variant: normal; font-weight: normal; font-size: 13px; line-height: normal; font-family: arial, sans-serif; white-space: normal; orphans: 2; color: rgb(34, 34, 34); word-spacing: 0px; /></p><p><a href=https://www.weather.gov/media/notification/pdfs/scn14-06buoy_st_augustine_fl.pdf>https://www.weather.gov/media/notification/pdfs/scn14-06buoy_st_augustine_fl.pdf</a><br /></p><p>Station 41012 has been disestablished on 02/19/2014.<br /><br /><br /></p>"
41013,2003,2026,24,2026-02-10T10:30:00Z,33.436,-77.743,"Frying Pan Shoals, NC",3-meter discus buoy,E,N,NDBC,US,3D33,SCOOP payload,FZNT22.KWBC FZUS52.KILM,"Right whales are active off NC from November to April. Speed restrictions of 10 knots apply to vessels 65 feet or greater in specific areas and times along the mid-Atlantic coast. To learn more about right whales and rules protecting them, go to: <a href=http://www.nmfs.noaa.gov/pr/shipstrike/>http://www.nmfs.noaa.gov/pr/shipstrike/</a><br />"
41015,1993,1993,1,1993-07-24T17:00:00Z,35.4,-75.3,,3-meter discus buoy,E,N,NDBC,US,,DACT payload,,
41016,1992,1995,4,1995-06-10T12:00:00Z,24.6,-76.5,,12-meter discus buoy,E,N,NDBC,US,,GSBP payload,,
41017,1991,1993,2,1993-07-24T15:00:00Z,35.4,-75.1,,3-meter discus buoy,E,N,NDBC,US,,DACT payload,,
41018,1994,1996,3,1996-02-14T23:00:00Z,15,-75,,3-meter discus buoy,E,N,NDBC,US,,DACT payload,,
41021,1994,1996,3,1996-11-16T23:00:00Z,31.92,-80.85,Olympic Northeast,3-meter discus buoy,E,N,NDBC,US,48,VEEP payload,,
41022,1995,1996,2,1996-12-08T23:00:00Z,31.89,-80.86,Olympic Southwest,3-meter discus buoy,E,N,NDBC,US,52,VEEP payload,,
41023,1996,1996,1,1996-09-11T23:00:00Z,31.92,-80.93,Olympic Southwest,3-meter discus buoy,E,N,NDBC,US,52,VEEP payload,,
41024,2005,2026,22,2026-02-10T10:08:00Z,33.848,-78.489,"Sunset Nearshore, NC (SUN2)",Moored Buoy,E,CR,CORMP,US,,,FZUS52.KILM,"Right whales are active off NC from November to April. Speed restrictions of 10 knots apply to vessels 65 feet or greater within the vicinity of this station between November 1 and April 30. To learn more about right whales and rules protecting them, go to: <a href=http://www.nmfs.noaa.gov/pr/shipstrike>http://www.nmfs.noaa.gov/pr/shipstrike</a>.<br /> <br /> Wave data from this buoy (SSBN7) can be viewed <a title=SSBN& href=https://www.ndbc.noaa.gov/station_page.php?station=ssbn7>here</a>."
41025,2003,2026,24,2026-02-10T10:30:00Z,35.006,-75.402,"Diamond Shoals, NC",3-meter foam buoy,E,N,NDBC,US,3DV46,SCOOP payload,FZUS52.KMHX,"</p>This buoy is located 3 NM to the East of the <a style=font-size: 9pt; href=http://www.monitor.noaa.gov/>Monitor National Marine Sanctuary</a>.</p>Right whales are active off NC from November to April. Speed restrictions of 10 knots apply to vessels 65 feet or greater in specific areas and times along the mid-Atlantic coast. To learn more about right whales and rules protecting them, go to: <a href=http://www.nmfs.noaa.gov/pr/shipstrike/>http://www.nmfs.noaa.gov/pr/shipstrike/</a><a href=http://www.nmfs.noaa.gov/pr/shipstrike/></a>"
41027,2005,2008,4,2008-03-21T02:00:00Z,33.302,-78.137,Sunset Mid-Shelf (SUN 3),Offshore Buoy,E,A,CaroCOOPS,US,,,FZUS52.KILM FZNT22.KWBC,
41029,2005,2026,22,2026-02-10T09:08:00Z,32.81,-79.63,"Capers Nearshore, SC (CAP2)",Moored Buoy,E,CR,CORMP,US,,,FZUS52.KCHS,"Right whales are active off SC from November to April. Speed restrictions of 10 knots apply to vessels 65 feet or greater within the vicinity of this station between November 1 and April 30. It is illegal to approach right whales within 500 yards. To learn more about right whales and rules protecting them, go to: <a href=http://www.nmfs.noaa.gov/pr/shipstrike>http://www.nmfs.noaa.gov/pr/shipstrike</a></p>Wave data from this buoy (41065) can be viewed <a title=41065 href=https://www.ndbc.noaa.gov/station_page.php?station=41065>here</a>."
41030,2005,2008,4,2008-04-28T14:00:00Z,32.52,-79.34,Capers Mid-Shelf (CAP 3),Offshore Buoy,E,A,CaroCOOPS,US,,,FZUS52.KCHS,
41033,2005,2026,22,2026-02-10T10:08:00Z,32.28,-80.41,"Fripp Nearshore, SC (FRP2)",Moored Buoy,E,CR,CORMP,US,,,FZUS52.KCHS,"Right whales are active off SC from November to April. Speed restrictions of 10 knots apply to vessels 65 feet or greater within the vicinity of this station between November 1 and April 30. It is illegal to approach right whales within 500 yards. To learn more about right whales and rules protecting them, go to: <a href=http://www.nmfs.noaa.gov/pr/shipstrike>http://www.nmfs.noaa.gov/pr/shipstrike</a></p>Wave data from this station (41067) can be viewed <a title=41067 href=https://www.ndbc.noaa.gov/station_page.php?station=41067>here</a>."
41035,2005,2011,7,2011-08-22T20:50:00Z,34.476,-77.28,"Onslow Bay Inner, NC",3-meter discus buoy,E,N,NDBC,US,3D85,ARES payload,FZUS52.KMHX,<p>The buoy at station 41035 has been recovered and dis-established as of 8/22/11. <br /></p>
41036,2006,2015,10,2015-01-12T20:50:00Z,34.206,-76.952,"Onslow Bay Outer, NC",3-meter discus buoy,E,N,NDBC,US,3D32,,,"Station 41036 was disestablished 05/26/2015 due to loss of funding.			<p>Buoy Station 41036 will be removed from service effective January 2015.  For more information please see the NWS Service Change Notice at <br style=widows: 2; text-transform: none; background-color: rgb(255, 255, 255); text-indent: 0px; letter-spacing: normal; font-style: normal; font-variant: normal; font-weight: normal; font-size: 13px; line-height: normal; font-family: arial, sans-serif; white-space: normal; orphans: 2; color: rgb(34, 34, 34); word-spacing: 0px; /></p><p><a href=https://www.weather.gov/media/notification/pdfs/scn14-62buoy_41036.pdf>https://www.weather.gov/media/notification/pdfs/scn14-62buoy_41036.pdf</a><br /></p><p>Station 41036 has been disestablished on 05/26/2015.<br /><br /><br /></p>"
41037,2005,2026,22,2026-02-10T10:08:00Z,33.991,-77.36,"Wrightsville Beach Offshore, NC (ILM3)",Moored Buoy,E,CR,CORMP,US,,,FZUS52.KILM FZNT22.KWBC,"Right whales are active off NC from November to April. Speed restrictions of 10 knots apply to vessels 65 feet or greater within the vicinity of this station between November 1 and April 30. It is illegal to approach right whales within 500 yards. To learn more about right whales and rules protecting them, go to: <a href=http://www.nmfs.noaa.gov/pr/shipstrike>http://www.nmfs.noaa.gov/pr/shipstrike</a>"
41038,2005,2026,22,2026-02-10T10:08:00Z,34.141,-77.715,"Wrightsville Beach Nearshore, NC (ILM2)",Moored Buoy,E,CR,CORMP,US,,,FZUS52.KILM,"Right whales are active off NC from November to April. Speed restrictions of 10 knots apply to vessels 65 feet or greater within the vicinity of this station between November 1 and April 30. To learn more about right whales and rules protecting them, go to: <a href=http://www.nmfs.noaa.gov/pr/shipstrike>http://www.nmfs.noaa.gov/pr/shipstrike</a>.<br> </br>Data from a nearby waverider buoy (41110) can be viewed <a title=41110 href=https://www.ndbc.noaa.gov/station_page.php?station=41110>here</a>."
41040,2005,2025,21,2025-11-17T03:10:00Z,14.477,-53.008,NORTH EQUATORIAL ONE- 470 NM East of Martinique,3-meter discus buoy,N,N,NDBC,US,3D37,SCOOP payload,,Drifting hull recovered 12/28/25.
41041,2005,2021,16,2021-07-16T19:00:00Z,14.357,-46.008,NORTH EQUATORIAL TWO - 890 NM East of Martinique,3-meter discus buoy,?,N,NDBC,US,3D48,SCOOP payload,,The buoy from station 41041 has been recovered as of 10/14/21.
41043,2007,2026,20,2026-02-10T10:20:00Z,21.061,-64.966,"NE PUERTO RICO - 170 NM NNE of San Juan, PR",3-meter foam buoy,N,N,NDBC,US,3DV36,SCOOP payload,FZNT23.KNHC,
41044,2009,2026,18,2026-02-10T10:20:00Z,21.652,-58.695,NE ST MARTIN - 330 NM NE St Martin Is,3-meter discus buoy,N,N,NDBC,US,3D70,SCOOP payload,FZNT23.KNHC,
41046,2007,2026,20,2026-02-10T10:30:00Z,23.836,-70.863,"EAST BAHAMAS - 335 NM East of San Salvador Is,  Bahamas",3-meter foam buoy,E,N,NDBC,US,3DV09,SCOOP payload,FZNT23.KNHC,
41047,2007,2025,19,2025-10-30T14:30:00Z,27.469,-71.491,"NE BAHAMAS - 350 NM ENE of Nassau, Bahamas",3-meter foam buoy,E,N,NDBC,US,3DV22,SCOOP payload,FZNT23.KNHC,
41048,2007,2023,17,2023-09-14T23:10:00Z,31.978,-69.649,WEST BERMUDA - 240 NM West of Bermuda - Jen's Station,3-meter foam buoy,E,N,NDBC,US,,SCOOP payload,,Buoy recovered 4/29/24.
41049,2009,2026,18,2026-02-10T10:30:00Z,27.5,-63,SOUTH BERMUDA - 300 NM SSE of Bermuda,3-meter foam buoy,?,N,NDBC,US,3DV25,SCOOP payload,,
41051,2013,2016,4,2016-08-12T11:40:00Z,18.257,-65.004,"South of St. Thomas, VI",Moored Buoy,?,CI,Caribbean Integrated Coastal Ocean Observing System (CarICoos),US,,,FZCA52.TJSJ,
41052,2011,2026,16,2026-02-10T10:00:00Z,18.251,-64.763,"South of St. John, VI",Moored Buoy,N,CI,Caribbean Integrated Coastal Ocean Observing System (CarICoos),US,,,FZCA52.TJSJ,
41053,2010,2026,17,2026-02-10T09:30:00Z,18.476,-66.099,"San Juan, PR",Moored Buoy,N,CI,Caribbean Integrated Coastal Ocean Observing System (CarICoos),US,,,FZCA52.TJSJ,
41056,2013,2026,14,2026-02-10T10:00:00Z,18.26,-65.458,"Vieques Island, PR",Moored Buoy,N,CI,Caribbean Integrated Coastal Ocean Observing System (CarICoos),US,,,FZCA52.TJSJ,Buoy recovered for maintenance 12/4/25.
41057,2016,2018,3,2018-01-27T18:00:00Z,19.833,-70.731,"Puerto Plata, DO",Moored Buoy,N,IC,Integrated Coral Observing Network (ICON),US,,,,
41058,2017,2017,1,2017-09-06T17:30:00Z,18.476,-65.157,"North of St. Thomas, VI",Moored Buoy,?,CI,Caribbean Integrated Coastal Ocean Observing System (CarICoos),US,,,FZCA52.TJSJ,
41060,2011,2018,8,2018-08-28T21:50:00Z,14.75,-50.95,Woods Hole Northwest Tropical Atlantic Wave Station,2.4-meter discus buoy,?,WH,Woods Hole Oceanographic Institution,US,,WAMDAS payload,,MET data from this station is available at <a title=41nt0 href=http://www.ndbc.noaa.gov/station_page.php?station=41nt0> 41NT0</a>.
41061,2012,2013,2,2013-10-07T09:50:00Z,24.581,-38,Woods Hole SPURS Wave Station,2.4-meter discus buoy,?,WH,Woods Hole Oceanographic Institution,US,,,,Station 41061 has been recovered.
41062,2014,2018,3,2018-11-20T15:00:00Z,35.785,-75.092,Hatteras Bay (B1),Buoy,E,UB,University of North Carolina,US,,,FZNT22.KWBC,"Right whales are active off NC from November to April. Speed restrictions of 10 knots apply to vessels 65 feet or greater in specific areas and times along the mid-Atlantic coast. To learn more about right whales and rules protecting them, go to: <a href=http://www.nmfs.noaa.gov/pr/shipstrike/>http://www.nmfs.noaa.gov/pr/shipstrike/</a><a href=http://www.nmfs.noaa.gov/pr/shipstrike/></a>		Station was recovered 11/20/18."
41063,2014,2018,3,2018-11-22T01:00:00Z,34.798,-75.945,Raleigh Bay (B2),Buoy,E,UB,University of North Carolina,US,,,FZUS52.KMHX,"Right whales are active off NC from November to April. Speed restrictions of 10 knots apply to vessels 65 feet or greater in specific areas and times along the mid-Atlantic coast. To learn more about right whales and rules protecting them, go to: <a href=http://www.nmfs.noaa.gov/pr/shipstrike/>http://www.nmfs.noaa.gov/pr/shipstrike/</a>Station was recovered 11/21/18."
41064,2015,2026,12,2026-02-10T10:08:00Z,34.207,-76.949,"Onslow Bay Outer, NC (LEJ3)",Moored Buoy,E,CR,CORMP,US,,,FZUS52.KMHX FZNT22.KWBC,"Right whales are active off NC from November to April. Speed restrictions of 10 knots apply to vessels 65 feet or greater in specific areas and times along the mid-Atlantic coast. To learn more about right whales and rules protecting them, go to: <a href=http://www.nmfs.noaa.gov/pr/shipstrike/>http://www.nmfs.noaa.gov/pr/shipstrike/</a><br /><br /> Data from a nearby waverider buoy (41159) can be viewed <a title=41159 href=https://www.ndbc.noaa.gov/station_page.php?station=41159>here</a>."
41065,2021,2026,6,2026-02-10T09:30:00Z,32.802,-79.619,Capers Nearshore Waves (CAP2WAVE),Moored Buoy,E,CR,CORMP,US,,,FZUS52.KCHS,"Right whales are active off SC from November to April. Speed restrictions of 10 knots apply to vessels 65 feet or greater within the vicinity of this station between November 1 and April 30. It is illegal to approach right whales within 500 yards. To learn more about right whales and rules protecting them, go to: <a href=http://www.nmfs.noaa.gov/pr/shipstrike>http://www.nmfs.noaa.gov/pr/shipstrike</a></p>Meteorological data from this station (41029) can be viewed <a title=41029 href=https://www.ndbc.noaa.gov/station_page.php?station=41029>here</a>."
41066,2022,2026,5,2026-02-10T10:08:00Z,32.536,-79.656,CHR60,Moored Buoy,E,CR,CORMP,US,,,,"Right whales are active off SC from November to April. Speed restrictions of 10 knots apply to vessels 65 feet or greater within the vicinity of this station between November 1 and April 30. It is illegal to approach right whales within 500 yards. To learn more about right whales and rules protecting them, go to: <a href=http://www.nmfs.noaa.gov/pr/shipstrike>http://www.nmfs.noaa.gov/pr/shipstrike</a></p>Wave data from this buoy (41076) can be viewed <a title=41076 href=https://www.ndbc.noaa.gov/station_page.php?station=41076>here</a>."
41067,2023,2026,4,2026-02-10T10:00:00Z,32.276,-80.406,FRP2WAVE,Moored Buoy,E,CR,CORMP,US,,,,"Right whales are active off SC from November to April. Speed restrictions of 10 knots apply to vessels 65 feet or greater within the vicinity of this station between November 1 and April 30. It is illegal to approach right whales within 500 yards. To learn more about right whales and rules protecting them, go to: <a href=http://www.nmfs.noaa.gov/pr/shipstrike>http://www.nmfs.noaa.gov/pr/shipstrike</a></p>Meteorological data from this station (41033) can be viewed <a title=41033 href=https://www.ndbc.noaa.gov/station_page.php?station=41033>here</a>."
41068,2023,2026,4,2026-02-10T10:08:00Z,27.593,-80.189,"Fort Pierce, FL (FTP)",Moored Buoy,E,CR,CORMP,US,,,FZUS52.KMLB,Going to Oculina Bank? Please review <a href=/ndbcexit.php?url=https://safmc.net/regulations/ shape=rect>Oculina fishing regulations</a>.
41069,2023,2026,4,2026-02-10T10:08:00Z,29.289,-80.803,"Ponce de Leon Inlet, FL (PNC)",Moored Buoy,E,CR,CORMP,US,,,FZUS52.KMLB,"Right whales are active off FL from November to April. Speed restrictions of 10 knots apply to vessels 65 feet or greater in specific areas and times along the U.S. East Coast.  It is illegal to approach right whales within 500 yards. To learn more about right whales and rules protecting them, go to: <a href=http://www.nmfs.noaa.gov/pr/shipstrike>http://www.nmfs.noaa.gov/pr/shipstrike</a></p>Wave data from this station (41070) can be viewed <a title=41070 href=https://www.ndbc.noaa.gov/station_page.php?station=41070>here</a>."
41070,2023,2026,4,2026-01-16T21:25:00Z,29.289,-80.803,Ponce de Leon Inlet Waves (PNCWAVE),Moored Buoy,E,CR,CORMP,US,,,FZUS52.KMLB,"Right whales are active off SC from November to April. Speed restrictions of 10 knots apply to vessels 65 feet or greater within the vicinity of this station between November 1 and April 30. It is illegal to approach right whales within 500 yards. To learn more about right whales and rules protecting them, go to: <a href=http://www.nmfs.noaa.gov/pr/shipstrike>http://www.nmfs.noaa.gov/pr/shipstrike</a></p>Meteorological data from this station (41069) can be viewed <a title=41069 href=https://www.ndbc.noaa.gov/station_page.php?station=41069>here</a>."
41076,2022,2026,5,2026-02-10T09:40:00Z,32.536,-79.659,CHR60WAVE,Moored Buoy,E,CR,CORMP,US,,,,"Right whales are active off SC from November to April. Speed restrictions of 10 knots apply to vessels 65 feet or greater within the vicinity of this station between November 1 and April 30. It is illegal to approach right whales within 500 yards. To learn more about right whales and rules protecting them, go to: <a href=http://www.nmfs.noaa.gov/pr/shipstrike>http://www.nmfs.noaa.gov/pr/shipstrike</a></p>Meteorological data from this buoy (41066) can be viewed <a title=41066 href=https://www.ndbc.noaa.gov/station_page.php?station=41066>here</a>."
41082,2024,2025,2,2025-11-09T17:00:00Z,35.95,-75.125,OOI Pioneer - Mid-Atlantic Bight Central Surface Mooring,Moored Buoy,E,OO,NSF Ocean Observatories Initiative,US,,,,
41083,2024,2026,3,2026-02-10T09:00:00Z,35.725,-74.853,OOI Pioneer - Mid-Atlantic Bight Southern Surface Mooring,Moored Buoy,E,OO,NSF Ocean Observatories Initiative,US,,,,
41108,2013,2026,14,2026-02-10T10:26:00Z,33.721,-78.015,"Wilmington Harbor, NC - (200)",Waverider Buoy,E,R,SCRIPPS,US,,,FZUS52.KILM,"Right whales are active off NC from November to April. Speed restrictions of 10 knots apply to vessels 65 feet or greater within the vicinity of this station between November 1 and April 30. To learn more about right whales and rules protecting them, go to: <a href=http://www.nmfs.noaa.gov/pr/shipstrike>http://www.nmfs.noaa.gov/pr/shipstrike</a>"
41109,2012,2014,3,2014-07-09T21:12:00Z,34.483,-77.3,"New River Inlet, NC - (190)",Waverider Buoy,E,R,SCRIPPS,US,,,,"Right whales are active off NC from November to April. Speed restrictions of 10 knots apply to vessels 65 feet or greater in specific areas and times along the mid-Atlantic coast. To learn more about right whales and rules protecting them, go to: <a href=http://www.nmfs.noaa.gov/pr/shipstrike/>http://www.nmfs.noaa.gov/pr/shipstrike/</a><br />"
41110,2008,2026,19,2026-02-10T10:30:00Z,34.141,-77.709,"Masonboro Inlet, ILM2, NC (150)",Waverider Buoy,E,CR,CORMP,US,,,FZUS52.KILM,"Right whales are active off NC from November to April. Speed restrictions of 10 knots apply to vessels 65 feet or greater within the vicinity of this station between November 1 and April 30. To learn more about right whales and rules protecting them, go to: <a href=http://www.nmfs.noaa.gov/pr/shipstrike>http://www.nmfs.noaa.gov/pr/shipstrike</a>.<br> </br>Data from a nearby buoy (41038) can be viewed <a title=41038 href=https://www.ndbc.noaa.gov/station_page.php?station=41038>here</a>."
41112,2006,2026,21,2026-02-10T10:26:00Z,30.719,-81.293,"Offshore Fernandina Beach, FL (132)",Waverider Buoy,E,R,SCRIPPS,US,,,FZUS52.KJAX,"Right whales are active off FL from November to April. Speed restrictions of 10 knots apply to vessels 65 feet or greater in specific areas and times along the U.S. East Coast.  It is illegal to approach right whales within 500 yards.  To learn more about right whales and rules protecting them, go to: <a href=http://www.nmfs.noaa.gov/pr/shipstrike>http://www.nmfs.noaa.gov/pr/shipstrike</a>.<br />"
41113,2006,2026,21,2026-02-10T10:26:00Z,28.4,-80.53,"Cape Canaveral Nearshore, FL (143)",Waverider Buoy,E,R,SCRIPPS,US,,,FZUS52.KMLB,"Right whales are active off FL from November to April. Speed restrictions of 10 knots apply to vessels 65 feet or greater in specific areas and times along the U.S. East Coast.  It is illegal to approach right whales within 500 yards.  To learn more about right whales and rules protecting them, go to: <a href=http://www.nmfs.noaa.gov/pr/shipstrike>http://www.nmfs.noaa.gov/pr/shipstrike</a>.<br />"
41114,2006,2026,21,2026-02-10T10:26:00Z,27.551,-80.225,"Fort Pierce, FL (134)",Waverider Buoy,E,R,SCRIPPS,US,,,FZUS52.KMLB,Going to Oculina Bank? Please review <a href=/ndbcexit.php?url=https://safmc.net/regulations/ shape=rect>Oculina fishing regulations</a>.
41115,2011,2026,16,2026-02-10T10:26:00Z,18.376,-67.28,"Rincon, Puerto Rico (181)",Waverider Buoy,N,CI,Caribbean Integrated Coastal Ocean Observing System (CarICoos),US,,,FZCA52.TJSJ,
41116,2017,2017,1,2017-09-05T22:30:00Z,28.523,-80.188,"Oculina Bank North, FL (227)",Waverider Buoy,E,R,SCRIPPS,US,,,FZUS52.KMLB,"Right whales are active off FL from November to April. Speed restrictions of 10 knots apply to vessels 65 feet or greater in specific areas and times along the U.S. East Coast.  It is illegal to approach right whales within 500 yards.  To learn more about right whales and rules protecting them, go to: <a href=http://www.nmfs.noaa.gov/pr/shipstrike>http://www.nmfs.noaa.gov/pr/shipstrike</a>.<br /><br />"
41117,2017,2026,10,2026-02-10T09:56:00Z,30,-81.08,"St. Augustine, FL (194)",Waverider Buoy,E,AC,U.S. Army Corps of Engineers,US,,,FZUS52.KJAX,"Right whales are active off FL from November to April. Speed restrictions of 10 knots apply to vessels 65 feet or greater in specific areas and times along the U.S. East Coast.  It is illegal to approach right whales within 500 yards.  To learn more about right whales and rules protecting them, go to: <a href=http://www.nmfs.noaa.gov/pr/shipstrike>http://www.nmfs.noaa.gov/pr/shipstrike</a>"
41118,2017,2018,2,2018-08-15T16:00:00Z,28.609,-80.59,"Chester Shoal, FL (228)",Waverider Buoy,E,R,SCRIPPS,US,,,FZUS52.KMLB,
41119,2019,2020,2,2020-08-21T16:17:00Z,33.842,-78.483,"Sunset Beach, NC - (245)",Waverider Buoy,E,CR,CORMP,US,,,FZUS52.KMHX FZNT22.KWBC,"Right whales are active off NC from November to April. Speed restrictions of 10 knots apply to vessels 65 feet or greater in specific areas and times along the mid-Atlantic coast. To learn more about right whales and rules protecting them, go to: <a href=http://www.nmfs.noaa.gov/pr/shipstrike/>http://www.nmfs.noaa.gov/pr/shipstrike/</a><br /><br /> Data from a nearby buoy (41024) can be viewed <a title=41064 style=font-size: 9pt; href=http://www.ndbc.noaa.gov/station_page.php?station=41024>here</a>."
41120,2021,2026,6,2026-02-02T16:00:00Z,35.259,-75.286,"Cape Hatteras East, NC (250)",Waverider Buoy,E,R,SCRIPPS,US,,,,
41121,2021,2024,4,2024-04-16T10:26:00Z,18.49,-66.701,"Arecibo, Puerto Rico (249)",Waverider Buoy,N,CI,Caribbean Integrated Coastal Ocean Observing System (CarICoos),US,,,FZCA52.TJSJ,
41122,2023,2025,3,2025-12-24T18:30:00Z,26.001,-80.096,"Hollywood Beach, FL (265)",Waverider Buoy,E,R,SCRIPPS,US,,,FZUS52.KMFL,
41140,2008,2010,3,2010-11-02T11:52:00Z,17.769,-64.723,"Christiansted, St. Croix, Virgin Islands",Waverider Buoy,N,R,SCRIPPS,US,,,,"Station 41140 was disestablished November 2, 2010.&nbsp;Use the Observations from Nearby Stations and Ships below to see a listing of nearest stations.&nbsp; The historical data will remain available.&nbsp; The station page is accessible via our historical map, or you can always just put in the station ID in the Station ID Search Box."
41141,2010,2011,2,2011-04-13T12:21:00Z,17.684,-64.635,"Fareham, St. Croix, Virgin Islands",Waverider Buoy,N,R,SCRIPPS,US,,,,"Station 41141 was disestablished April 13, 2011.&nbsp;Use the Observations from Nearby Stations and Ships below to see a listing of nearest stations.&nbsp; The historical data will remain available.&nbsp; The station page is accessible via our historical map, or you can always just put in the station ID in the Station ID Search Box."
41159,2015,2026,12,2026-02-10T10:26:00Z,34.21,-76.948,"Onslow Bay Outer, NC (217)",Waverider Buoy,E,CR,CORMP,US,,,FZUS52.KMHX FZNT22.KWBC,"Right whales are active off NC from November to April. Speed restrictions of 10 knots apply to vessels 65 feet or greater in specific areas and times along the mid-Atlantic coast. To learn more about right whales and rules protecting them, go to: <a href=http://www.nmfs.noaa.gov/pr/shipstrike/>http://www.nmfs.noaa.gov/pr/shipstrike/</a><br /><br /> Data from a nearby buoy (41064) can be viewed <a title=41064 style=font-size: 9pt; href=https://www.ndbc.noaa.gov/station_page.php?station=41064>here</a>."
41193,2008,2010,3,2010-01-08T22:30:00Z,12.351,-72.218,"Puerto Bolivar, Colombia",Offshore Buoy,E,DC,DIMAR Colombia - CCCP,CO,,,,
41194,2008,2009,2,2009-04-20T16:10:00Z,11.161,-74.681,"Barranquilla, Colombia",Offshore Buoy,E,DC,DIMAR Colombia - CCCP,CO,,,,
42001,1975,2026,52,2026-02-10T10:20:00Z,25.888,-89.658,"MID GULF - 180 nm South of Southwest Pass, LA",3-meter foam buoy,C,N,NDBC,US,3DV42,SCOOP payload,FZNT24.KNHC,"The highly endangered <a href=https://www.fisheries.noaa.gov/species/rices-whale>Rice's whale</a>, a newly identified species, inhabit the northeastern Gulf of America year-round along the continental shelf-break between 100m and 400m depth. Vessels can kill or injure whales - please use slow speeds and be prepared to avoid surfacing whales. To report sightings call 1-877-WHALE-HELP."
42002,1973,2026,54,2026-02-10T10:20:00Z,25.79,-93.666,"WEST GULF - 207 NM East of Brownsville, TX",3-meter foam buoy,C,N,NDBC,US,3DV18,SCOOP payload,FZNT24.KNHC,"The highly endangered <a href=https://www.fisheries.noaa.gov/species/rices-whale>Rice's whale</a>, a newly identified species, inhabit the northeastern Gulf of America year-round along the continental shelf-break between 100m and 400m depth. Vessels can kill or injure whales - please use slow speeds and be prepared to avoid surfacing whales. To report sightings call 1-877-WHALE-HELP."
42003,1976,2022,47,2022-09-21T14:10:00Z,26.044,-85.612,"East GULF - 208 NM West of Naples, FL",2.1-meter ionomer foam buoy,C,N,NDBC,US,2.1D11,SCOOP payload,FZNT24.KNHC,"The highly endangered <a href=https://www.fisheries.noaa.gov/species/rices-whale>Rice's whale</a>, a newly identified species, inhabit the northeastern Gulf of America year-round along the continental shelf-break between 100m and 400m depth. Vessels can kill or injure whales - please use slow speeds and be prepared to avoid surfacing whales. To report sightings call 1-877-WHALE-HELP."
42004,1978,1979,2,1979-02-11T23:00:00Z,27.5,-85.5,,12-meter discus buoy,C,N,NDBC,US,,MVXII payload,,
42005,1978,1980,3,1980-05-13T15:00:00Z,30,-85.9,,12-meter discus buoy,C,N,NDBC,US,,MVXII payload,,
42006,1979,1980,2,1980-03-23T15:00:00Z,26.5,-96,,6-meter NOMAD buoy,C,N,NDBC,US,,MVXII payload,,
42007,1981,2009,29,2009-12-09T11:50:00Z,30.09,-88.769,"BILOXI - 22 NM SSE of Biloxi, MS",3-meter discus buoy,C,N,NDBC,US,3D36,ARES 4.4 payload,FZUS54.KLIX,"42007 has been disestablished on April 2, 2010.&nbsp; Station 42040 has been re-established approximately 60 NM south of 42007's nominal position<br />"
42009,1980,1987,6,1987-04-21T14:00:00Z,29.3,-87.5,,10-meter discus buoy,C,N,NDBC,US,,GSBP payload,,
42010,1981,1982,2,1982-03-29T12:00:00Z,29.7,-93.4,,Platform BTA,C,N,NDBC,US,,,,
42011,1981,1984,4,1984-08-23T14:00:00Z,29.7,-93.5,,Platform BTA,C,N,NDBC,US,,,,
42012,1983,2026,20,2026-02-10T10:20:00Z,30.065,-87.555,"ORANGE BEACH - 44 NM SE of Mobile, AL",3-meter discus buoy,C,N,NDBC,US,3D43,SCOOP payload,FZUS54.KMOB,"The highly endangered <a href=https://www.fisheries.noaa.gov/species/rices-whale>Rice's whale</a>, a newly identified species, inhabit the northeastern Gulf of America year-round along the continental shelf-break between 100m and 400m depth. Vessels can kill or injure whales - please use slow speeds and be prepared to avoid surfacing whales. To report sightings call 1-877-WHALE-HELP."
42013,2004,2026,22,2026-02-10T09:35:00Z,27.169,-82.926,"C10 - WFS Central Buoy, 25m Isobath",Offshore Buoy,C,P,COMPS (University of South Florida),US,,,FZUS52.KTBW,
42014,2004,2008,5,2008-01-13T02:00:00Z,25.254,-82.22,C17 - W. FL Sea-Coos,Offshore Buoy,E,P,COMPS (University of South Florida),US,,,FZUS52.KKEY,
42015,1987,1990,4,1990-09-27T15:00:00Z,30.1,-88.2,,3-meter discus buoy,E,N,NDBC,US,,DACT payload,,
42016,1988,1995,6,1995-07-01T00:00:00Z,30.2,-88.1,,3-meter discus buoy,C,N,NDBC,US,,DACT payload,,
42017,1989,1989,1,1989-09-12T11:00:00Z,27.9,-90.9,,3-meter discus buoy,C,N,NDBC,US,,DACT payload,,
42018,1990,1990,1,1990-03-22T00:00:00Z,30,-88.2,,3-meter discus buoy,C,N,NDBC,US,,DACT payload,,
42019,1990,2026,37,2026-02-10T10:30:00Z,27.913,-95.353,"FREEPORT, TX - 60 NM South of Freeport, TX",2.1-meter ionomer foam buoy,C,N,NDBC,US,2.1D12,SCOOP payload,FZUS54.KHGX FZNT24.KNHC,"The highly endangered <a href=https://www.fisheries.noaa.gov/species/rices-whale>Rice's whale</a>, a newly identified species, inhabit the northeastern Gulf of America year-round along the continental shelf-break between 100m and 400m depth. Vessels can kill or injure whales - please use slow speeds and be prepared to avoid surfacing whales. To report sightings call 1-877-WHALE-HELP."
42020,1990,2026,37,2026-02-10T10:30:00Z,26.966,-96.695,"CORPUS CHRISTI, TX - 60NM SSE of Corpus Christi, TX",3-meter discus buoy,C,N,NDBC,US,3D74,SCOOP payload,FZUS54.KBRO FZNT24.KNHC,"The highly endangered <a href=https://www.fisheries.noaa.gov/species/rices-whale>Rice's whale</a>, a newly identified species, inhabit the northeastern Gulf of America year-round along the continental shelf-break between 100m and 400m depth. Vessels can kill or injure whales - please use slow speeds and be prepared to avoid surfacing whales. To report sightings call 1-877-WHALE-HELP."
42021,2004,2012,9,2012-10-30T16:40:00Z,28.311,-83.306,"C14 - Pasco County Buoy, FL",Offshore Buoy,E,P,COMPS (University of South Florida),US,,,FZUS52.KTBW,
42022,2004,2026,20,2026-02-04T18:35:00Z,27.498,-83.722,"C12 - WFS Central Buoy, 50m Isobath",Offshore Buoy,C,P,COMPS (University of South Florida),US,,,FZNT24.KNHC FZUS52.KTBW,"The highly endangered <a href=https://www.fisheries.noaa.gov/species/rices-whale>Rice's whale</a>, a newly identified species, inhabit the northeastern Gulf of America year-round along the continental shelf-break between 100m and 400m depth. Vessels can kill or injure whales - please use slow speeds and be prepared to avoid surfacing whales. To report sightings call 1-877-WHALE-HELP."
42023,2004,2026,22,2026-02-10T09:35:00Z,26.064,-83.074,"C13 - WFS South Buoy, 50m Isobath",Offshore Buoy,C,P,COMPS (University of South Florida),US,,,FZNT24.KNHC,"The highly endangered <a href=https://www.fisheries.noaa.gov/species/rices-whale>Rice's whale</a>, a newly identified species, inhabit the northeastern Gulf of America year-round along the continental shelf-break between 100m and 400m depth. Vessels can kill or injure whales - please use slow speeds and be prepared to avoid surfacing whales. To report sightings call 1-877-WHALE-HELP."
42025,1991,1995,5,1995-06-27T11:00:00Z,24.9,-80.4,,1.8-meter discus buoy,C,N,NDBC,US,,VEEP payload,,
42026,2019,2026,8,2026-02-10T09:35:00Z,25.171,-83.475,"C22 - Loop Current Pressure Point Buoy, 70m Isobath",Offshore Buoy,C,P,COMPS (University of South Florida),US,,,FZNT24.KNHC,"The highly endangered <a href=https://www.fisheries.noaa.gov/species/rices-whale>Rice's whale</a>, a newly identified species, inhabit the northeastern Gulf of America year-round along the continental shelf-break between 100m and 400m depth. Vessels can kill or injure whales - please use slow speeds and be prepared to avoid surfacing whales. To report sightings call 1-877-WHALE-HELP."
42027,2025,2026,2,2026-02-01T06:35:00Z,29.045,-85.305,"C23 - FLRACEP nWFS Buoy, 45m isobath",Moored Buoy,E,P,COMPS (University of South Florida),US,,,,
42028,2025,2026,2,2026-02-10T09:35:00Z,29.745,-86.227,"C24 - FLRACEP nWFS Buoy, 58m isobath",Moored Buoy,E,P,COMPS (University of South Florida),US,,,,
42031,2025,2026,2,2026-02-10T09:00:00Z,30.09,-88.212,"West End CP, AL",Moored Buoy,C,DI,Dauphin Island Sea Lab,US,,,,"The highly endangered <a href=https://www.fisheries.noaa.gov/species/rices-whale>Rice's whale</a>, a newly identified species, inhabit the northeastern Gulf of America year-round along the continental shelf-break between 100m and 400m depth. Vessels can kill or injure whales - please use slow speeds and be prepared to avoid surfacing whales. To report sightings call 1-877-WHALE-HELP."
42035,1993,2025,33,2025-09-30T07:40:00Z,29.232,-94.413,"GALVESTON,TX -  22 NM East of Galveston, TX",3-meter foam buoy,C,N,NDBC,US,3DV41,SCOOP payload,FZUS54.KHGX,"</p>The highly endangered <a href=https://www.fisheries.noaa.gov/species/rices-whale>Rice's whale</a>, a newly identified species, inhabit the northeastern Gulf of America year-round along the continental shelf-break between 100m and 400m depth. Vessels can kill or injure whales - please use slow speeds and be prepared to avoid surfacing whales. To report sightings call 1-877-WHALE-HELP."
42036,1994,2026,32,2026-02-10T10:50:00Z,28.5,-84.517,"WEST TAMPA  - 112 NM WNW of Tampa, FL",3-meter discus buoy,C,N,NDBC,US,3D40,SCOOP payload,FZNT24.KNHC,"The highly endangered <a href=https://www.fisheries.noaa.gov/species/rices-whale>Rice's whale</a>, a newly identified species, inhabit the northeastern Gulf of America year-round along the continental shelf-break between 100m and 400m depth. Vessels can kill or injure whales - please use slow speeds and be prepared to avoid surfacing whales. To report sightings call 1-877-WHALE-HELP."
42037,1994,1995,2,1995-12-16T08:00:00Z,24.5,-81.4,,2.4-meter discus buoy,E,N,NDBC,US,,DACT payload,,Buoy disestablished.
42038,2004,2006,3,2006-04-30T23:00:00Z,27.421,-92.555,North Mid Gulf of America,3-meter discus buoy,C,N,NDBC,US,3D35,ARES payload,FZNT24.KNHC,"Station 42038 failed and was disestablished May 9, 2006.  The station had been part of an externally funded Minerals Management Service program that has ended.  Use the Observations from Nearby Stations and Ships link below to see a listing of the nearest stations.  The historical data will remain available.  The station page is accessible via our historical map, or you can always just put the station ID in the Station ID Search box."
42039,1995,2023,29,2023-11-15T01:40:00Z,28.791,-86.008,"PENSACOLA - 115NM SSE of Pensacola, FL",3-meter foam buoy,C,N,NDBC,US,3DV54,SCOOP payload,FZUS52.KTAE FZNT24.KNHC,This buoy is located within the highly endangered <a href=https://www.fisheries.noaa.gov/species/rices-whale>Rice's whale</a> (a newly identified species) habitat. Vessels can kill or injure whales - please use slow speeds and be prepared to avoid surfacing whales. To report sightings call 1-877-WHALE-HELP.
42040,1995,2026,32,2026-02-10T10:40:00Z,29.212,-88.207,"LUKE OFFSHORE TEST PLATFORM - 63 NM South of Dauphin Island, AL",3-meter foam buoy,C,N,NDBC,US,3DV34,SCOOP payload,FZUS54.KLIX FZNT24.KNHC,"This buoy is located within the highly endangered <a href=https://www.fisheries.noaa.gov/species/rices-whale>Rice's whale</a> (a newly identified species) habitat. Vessels can kill or injure whales - please use slow speeds and be prepared to avoid surfacing whales. To report sightings call 1-877-WHALE-HELP.			This buoy is located within important Rice's whale habitat. Vessels can kill or injure whales - please use slow speeds and be prepared to avoid surfacing whales. To report sightings call 1-877-WHALE-HELP. To learn more, go to: <a href=https://www.fisheries.noaa.gov/species/rices-whale>https://www.fisheries.noaa.gov/species/rices-whale</a>"
42041,1999,2005,7,2005-03-16T16:00:00Z,27.504,-90.462,"North Mid Gulf 110NM South of Grand Isle, LA",3-meter discus buoy,C,N,NDBC,US,24,MARS payload,FZUS54.KLIX,"Station 42041 was disestablished March 16, 2005.  The station had been part of an externally funded Minerals Management Service program that has ended.  Use the Observations from Nearby Stations and Ships link below to see a listing of the nearest stations.  The historical data will remain available.  The station page is accessible via our historical map, or you can always just put the station ID in the Station ID Search box."
42042,2000,2000,1,2000-11-09T15:00:00Z,29.88,-88.32,Pascagoula,3-meter discus buoy,C,N,NDBC,US,28,MARS payload,,
42043,2004,2021,17,2021-05-03T13:00:00Z,28.982,-94.919,TGLO TABS Buoy B,TABS II,C,T,TABS,US,,,FZUS54.KHGX,
42044,2010,2020,11,2020-12-08T17:00:00Z,26.191,-97.051,TGLO TABS Buoy J,TABS II,C,T,TABS,US,,,FZUS54.KBRO,
42045,2004,2021,18,2021-06-02T17:00:00Z,26.217,-96.5,TGLO TABS Buoy K,TABS II,C,T,TABS,US,,,FZUS54.KBRO FZNT24.KNHC,
42046,2004,2016,13,2016-11-10T04:30:00Z,27.89,-94.037,GERG Flower Gardens Buoy N,TABS II,C,T,TABS,US,,,FZNT24.KNHC,
42047,2004,2019,14,2019-02-23T05:00:00Z,27.897,-93.597,GERG Flower Gardens Buoy V,TABS II,C,T,TABS,US,,,FZNT24.KNHC,"Station disestablished 04/28/2019.</p>The highly endangered <a href=https://www.fisheries.noaa.gov/species/rices-whale>Rice's whale</a>, a newly identified species, inhabit the northeastern Gulf of America year-round along the continental shelf-break between 100m and 400m depth. Vessels can kill or injure whales - please use slow speeds and be prepared to avoid surfacing whales. To report sightings call 1-877-WHALE-HELP."
42053,1999,1999,1,1999-11-20T19:00:00Z,29.55,-88.5,Pascagoula South,12-meter discus buoy,C,N,NDBC,US,LNB11,MARS payload,,
42054,2000,2001,2,2001-05-14T04:00:00Z,26,-87.73,East Gulf,12-meter discus buoy,C,N,NDBC,US,LNB06,MARS payload,FZNT24.KNHC,Buoy 42054 was a short term project that has ended.
42055,2005,2026,22,2026-02-10T10:40:00Z,22.017,-94.046,"BAY OF CAMPECHE - 214 NM NE of Veracruz, MX",3-meter foam buoy,C,N,NDBC,US,3DV44,SCOOP payload,FZNT24.KNHC,"The highly endangered <a href=https://www.fisheries.noaa.gov/species/rices-whale>Rice's whale</a>, a newly identified species, inhabit the northeastern Gulf of America year-round along the continental shelf-break between 100m and 400m depth. Vessels can kill or injure whales - please use slow speeds and be prepared to avoid surfacing whales. To report sightings call 1-877-WHALE-HELP."
42056,2005,2026,22,2026-02-10T10:50:00Z,19.874,-85.059,"Yucatan Basin - 120 NM ESE of Cozumel, MX",3-meter foam buoy,E,N,NDBC,US,3DV32,SCOOP payload,FZNT23.KNHC,
42057,2005,2026,20,2026-02-10T10:50:00Z,16.834,-81.501,"Western Caribbean - 195 NM WSW of Negril, Jamaica",3-meter discus buoy,E,N,NDBC,US,3D66,SCOOP payload,FZNT23.KNHC,
42058,2005,2026,20,2026-01-30T19:30:00Z,15.093,-75.064,"Central Caribbean - 210 NM SSE of Kingston, Jamaica",3-meter foam buoy,E,N,NDBC,US,3DV65,SCOOP payload,FZNT23.KNHC,"The buoy from station 42058 has gone adrift of as 1700z, 1/30/26. The latest position from the buoy can be viewed <a href=http://www.ndbc.noaa.gov/nws_special/42058.txt target=_blank>here.</a>"
42059,2007,2025,19,2025-05-09T05:50:00Z,15.252,-67.483,"Eastern Caribbean Sea - 180 NM SSW of Ponce, PR",3-meter foam buoy,N,N,NDBC,US,3DV27,SCOOP payload,FZNT23.KNHC,"As of 0700z, 5/9/25, buoy 42059 has gone adrift and will be restored to service based on planned maintenance schedules. When the maintenance date is known, it will be posted in the Maintenance Schedule."
42060,2009,2026,18,2026-02-10T10:40:00Z,16.5,-63.5,Caribbean Valley - 63 NM WSW of Montserrat,3-meter foam buoy,N,N,NDBC,US,3DV67,SCOOP payload,FZNT23.KNHC,
42065,2011,2012,2,2012-02-29T22:50:00Z,14.927,-75.064,Near 42058 Central Caribbean,2.3-meter NOOSS buoy,E,N,NDBC,US,2.3D09,AMPS payload,FZNT23.KNHC,"<p>The buoy at station 42065 went adrift on 12/7/2011 and has since been recovered.</p><p>This station was disestablished on March 1, 2012.</p>"
42066,2025,2025,1,2025-07-18T14:15:00Z,30.216,-89.183,USM-R2,Buoy,C,US,USM,US,,,FZUS54.KLIX,
42067,2005,2026,7,2026-02-10T09:50:00Z,30.043,-88.647,USM-R1,2.2-meter buoy,C,US,USM,US,,,FZUS54.KLIX,
42078,2018,2018,1,2018-05-17T08:00:00Z,24.5,-81.251,"Big Pine Key, FL (237)",Waverider Buoy,E,AC,U.S. Army Corps of Engineers,US,,,FZUS52.KKEY,
42079,2018,2018,1,2018-09-25T17:00:00Z,24.535,-81.242,"Bahia Honda Key, FL (242)",Waverider Buoy,E,AC,U.S. Army Corps of Engineers,US,,,FZUS52.KKEY,Station has been disestablished as of 11/15/18.
42080,2007,2008,2,2008-03-07T11:06:00Z,24.396,-81.934,"Offshore Sand Key, FL",1.8-meter discus buoy,E,N,NDBC,US,1.8D008,WAMDAS payload,FZUS52.KKEY,Other weather data for this area are available at <a href=/station_page.php?station=sanf1>SANF1</a>.<p>Station 42080 has been disestablished</p>
42084,2021,2026,6,2026-02-10T10:30:00Z,28.988,-89.649,"Southwest Pass Entrance W, LA (256)",Waverider Buoy,C,R,SCRIPPS,US,,,FZUS54.KLIX,"The highly endangered <a href=https://www.fisheries.noaa.gov/species/rices-whale>Rice's whale</a>, a newly identified species, inhabit the northeastern Gulf of America year-round along the continental shelf-break between 100m and 400m depth. Vessels can kill or injure whales - please use slow speeds and be prepared to avoid surfacing whales. To report sightings call 1-877-WHALE-HELP."
42085,2009,2026,18,2026-02-10T10:30:00Z,17.86,-66.524,"Southeast of Ponce, PR",Moored Buoy,N,CI,Caribbean Integrated Coastal Ocean Observing System (CarICoos),US,,,FZCA52.TJSJ,
42087,2016,2016,1,2016-12-05T16:00:00Z,11.185,-60.848,"Buccoo Reef, Buccoo Marine Park, TT",Moored Buoy,N,IC,Integrated Coral Observing Network (ICON),US,,,,
42088,2016,2017,2,2017-10-19T01:00:00Z,11.301,-60.521,"Angel Reef, TT",2.5-meter ODAS buoy,N,IC,Integrated Coral Observing Network (ICON),US,,,,
42089,2014,2016,3,2016-11-18T09:50:00Z,19.699,-80.061,"Little Cayman Research Center, CYM",Moored Buoy,N,IC,Integrated Coral Observing Network (ICON),US,,,FZNT23.KNHC,
42090,2016,2017,2,2017-11-24T16:00:00Z,18.432,-69.58,"Catuan Wreck, Boca Chica, DR",Moored Buoy,N,IC,Integrated Coral Observing Network (ICON),US,,,,
42091,2021,2025,5,2025-05-16T02:56:00Z,29.087,-92.506,"Trinity Shoal, LA (255)",Waverider Buoy,C,R,SCRIPPS,US,,,FZUS54.KLCH,"The highly endangered <a href=https://www.fisheries.noaa.gov/species/rices-whale>Rice's whale</a>, a newly identified species, inhabit the northeastern Gulf of America year-round along the continental shelf-break between 100m and 400m depth. Vessels can kill or injure whales - please use slow speeds and be prepared to avoid surfacing whales. To report sightings call 1-877-WHALE-HELP."
42092,2021,2025,4,2025-11-21T19:00:00Z,27.766,-96.979,"Aransas Pass Channel Entrance S, TX (252)",Waverider Buoy,C,BI,"Conrad Blucher Institute (CBI) for Surveying and Science, Texas A&M University-Corpus Christi",US,,,FZUS54.KCRP,
42093,2020,2021,2,2021-01-06T07:56:00Z,29.017,-89.832,"Grand Isle Outer, LA (247)",Waverider Buoy,C,AC,U.S. Army Corps of Engineers,US,,,FZUS54.KLIX,
42094,2019,2019,1,2019-11-09T13:00:00Z,29.085,-89.908,"Grand Isle, LA (246)",Waverider Buoy,C,R,SCRIPPS,US,,,FZUS54.KLIX,
42095,2019,2026,8,2026-02-10T10:30:00Z,24.407,-81.967,"Satan Shoal, FL (244)",Waverider Buoy,E,AC,U.S. Army Corps of Engineers,US,,,FZUS52.KKEY,
42097,2016,2026,11,2026-02-10T10:56:00Z,25.7,-83.65,"Pulley Ridge, FL (226)",Waverider Buoy,C,AC,U.S. Army Corps of Engineers,US,,,FZNT24.KNHC,"The highly endangered <a href=https://www.fisheries.noaa.gov/species/rices-whale>Rice's whale</a>, a newly identified species, inhabit the northeastern Gulf of America year-round along the continental shelf-break between 100m and 400m depth. Vessels can kill or injure whales - please use slow speeds and be prepared to avoid surfacing whales. To report sightings call 1-877-WHALE-HELP."
42098,2015,2026,12,2026-02-10T10:30:00Z,27.59,-82.931,"Egmont Channel Entrance, FL (214)",Waverider Buoy,C,TB,Greater Tampa Bay Marine Advisory Council-PORTS,US,,,FZUS52.KTBW,
42099,2007,2026,20,2026-02-10T10:30:00Z,27.34,-84.245,"Offshore St. Petersburg, FL (144)",Waverider Buoy,C,R,SCRIPPS,US,,,FZNT24.KNHC,"The highly endangered <a href=https://www.fisheries.noaa.gov/species/rices-whale>Rice's whale</a>, a newly identified species, inhabit the northeastern Gulf of America year-round along the continental shelf-break between 100m and 400m depth. Vessels can kill or injure whales - please use slow speeds and be prepared to avoid surfacing whales. To report sightings call 1-877-WHALE-HELP."
42354,2025,2026,2,2026-02-10T10:56:00Z,29.579,-88.643,"Chandeleur Island SE, LA (279)",Waverider Buoy,C,R,SCRIPPS,US,,,,
42357,2025,2026,2,2026-01-15T05:45:00Z,30.092,-88.212,DISL Sofar Spotter,Spotter Buoy,C,DI,Dauphin Island Sea Lab,US,,,,
43010,2016,2017,2,2017-11-06T16:50:00Z,10.051,-125.032,Woods Hole Spurs Wave Station,2.4-meter discus buoy,?,WH,Woods Hole Oceanographic Institution,US,,WAMDAS payload,,Buoy Recovered 11/7/17.
44001,1975,1991,7,1991-04-06T10:00:00Z,38.7,-73.6,,6-meter NOMAD buoy,E,N,NDBC,US,,MVXI payload,,(formerly eb41)
44004,1977,2008,32,2008-03-08T17:50:00Z,38.484,-70.433,"HOTEL 200NM East of Cape May,NJ",6-meter NOMAD buoy,E,N,NDBC,US,3D06,ARES payload,FZNT22.KWBC,"<p>Station 44004 went adrift on 03/08/2008 and the last report from its moored position was at 2000Z.&nbsp; The buoy was recovered on 05/18/09.&nbsp;When redeployed the station will be moved approximately 120 nm northwest of its former position, to the outer continental shelf near the Hudson&nbsp;Canyon.&nbsp; This is to fill the data gap that presently exists along the outer shelf in that area.&nbsp; This station has since been disestablished and replaced by buoy <a title=44066 href=http://www.ndbc.noaa.gov/station_page.php?station=44066>44066</a>.<br /></p><p>&nbsp;</p><p>&nbsp;</p>"
44005,1978,2024,46,2024-03-25T07:40:00Z,43.189,-69.14,"GULF OF MAINE - 78 NM East of Portsmouth, NH",3-meter discus buoy,E,N,NDBC,US,3D51,SCOOP payload,FZNT21.KWBC FZUS51.KGYX,Adrift hull recovered 6/17/25
44006,1980,1995,7,1995-06-10T23:00:00Z,36.3,-75.4,,3-meter discus buoy,E,N,NDBC,US,,GSBP payload,,
44007,1982,2026,45,2026-02-10T10:40:00Z,43.531,-70.144,"PORTLAND - 12 NM Southeast of Portland,ME",3-meter discus buoy,E,N,NDBC,US,3D69,SCOOP payload,FZUS51.KGYX,"Caution: Right whales may be active in northeast waters year-round. NOAA may establish temporary Dynamic Management Areas (DMAs) to protect aggregations of right whales. Mariners are requested to transit DMAs at 10 knots or less when consistent with safe navigation. For information on currently active DMAs, go to: <a title=http://www.nmfs.noaa.gov/pr/shipstrike href=http://www.nmfs.noaa.gov/pr/shipstrike>http://www.nmfs.noaa.gov/pr/shipstrike</a><br /><br /><br />"
44008,1982,2026,44,2026-02-10T10:50:00Z,40.502,-69.247,NANTUCKET 54 NM Southeast of Nantucket,3-meter discus buoy,E,N,NDBC,US,3D24,SCOOP payload,FZNT21.KWBC,"<p>Caution: Right whales may be active in northeast waters year-round. Mandatory speed restrictions of 10 knots apply to vessels 65 feet or greater in specific areas and times along the US east coast. Voluntary speed restrictions may be in effect in other areas and times. For current information on speed-restricted areas, go to: <a href=http://www.nmfs.noaa.gov/pr/shipstrike>http://www.nmfs.noaa.gov/pr/shipstrike</a>"
44009,1984,2026,43,2026-02-10T10:40:00Z,38.451,-74.684,"DELAWARE BAY 26 NM Southeast of Cape May, NJ",3-meter discus buoy,E,N,NDBC,US,3D56,SCOOP payload,FZNT22.KWBC FZUS51.KPHI,"Right whales are active off Delaware Bay from November to April. Speed restrictions of 10 knots apply to vessels 65 feet or greater in specific areas along the mid-Atlantic coast. To learn more about right whales and rules protecting them, go to: <a style=font-size: 9pt; href=http://www.nmfs.noaa.gov/pr/shipstrike>http://www.nmfs.noaa.gov/pr/shipstrike</a><a style=font-size: 9pt; href=http://www.nmfs.noaa.gov/pr/shipstrike></a></p>"
44010,1984,1995,3,1995-06-11T14:00:00Z,36.9,-75.7,,3-meter discus buoy,E,N,NDBC,US,,GSBP payload,,
44011,1984,2026,42,2026-02-10T10:40:00Z,41.118,-66.578,"GEORGES BANK 170 NM East of Hyannis, MA",3-meter foam buoy,N,N,NDBC,US,3DV66,SCOOP payload,FZNT21.KWBC,"Caution: Right whales may be active in northeast waters year-round. Mandatory speed restrictions of 10 knots apply to vessels 65 feet or greater in specific areas and times along the US east coast. Voluntary speed restrictions may be in effect in other areas and times. For current information on speed-restricted areas, go to: <a title=http://www.nmfs.noaa.gov/pr/shipstrike href=http://www.nmfs.noaa.gov/pr/shipstrike>http://www.nmfs.noaa.gov/pr/shipstrike</a><a title=http://www.nmfs.noaa.gov/pr/shipstrike href=http://www.nmfs.noaa.gov/pr/shipstrike></a></p>"
44012,1984,1992,9,1992-11-09T23:00:00Z,38.8,-74.6,,USCG Large Navigational Buoy,E,N,NDBC,US,,DACT payload,,
44013,1984,2026,43,2026-02-10T10:40:00Z,42.346,-70.651,"BOSTON 16 NM East of Boston, MA",2.1-meter ionomer foam buoy,E,N,NDBC,US,2.1D13,SCOOP payload,FZUS51.KBOX,"Caution: Right whales may be active in northeast waters year-round. Mandatory speed restrictions of 10 knots apply to vessels 65 feet or greater in specific areas and times along the US east coast. Voluntary speed restrictions may be in effect in other areas and times. For current information on speed-restricted areas, go to: <a title=http://www.nmfs.noaa.gov/pr/shipstrike href=http://www.nmfs.noaa.gov/pr/shipstrike>http://www.nmfs.noaa.gov/pr/shipstrike</a> <p>For area forecasts and warnings, select: <a href=http://www.weather.gov/box/>Boston WFO</a></p>"
44014,1990,2026,37,2026-02-10T10:40:00Z,36.611,-74.836,"VIRGINIA BEACH 64 NM East of Virginia Beach, VA",2.1-meter ionomer foam buoy,E,N,NDBC,US,2.1D03,SCOOP payload,FZNT22.KWBC,"<p>Right whales are active off VA from November to April. Speed restrictions of 10 knots apply to vessels 65 feet or greater in specific areas along the mid-Atlantic coast. To learn more about right whales and rules protecting them, go to: <a href=http://www.nmfs.noaa.gov/pr/shipstrike>http://www.nmfs.noaa.gov/pr/shipstrike</a><br />"
44015,1990,1991,2,1991-04-04T17:00:00Z,37.5,-73.4,,3-meter discus buoy,E,N,NDBC,US,,DACT payload,,
44017,2002,2023,21,2023-01-21T13:50:00Z,40.692,-72.048,"MONTAUK POINT - 23 NM SSW of Montauk Point, NY",3-meter foam buoy,E,N,NDBC,US,3DV50,SCOOP payload,FZUS51.KOKX,"Station recovered 2/10/23. Data will be restored during our next service visit to this location. When a date is known, it will be posted in the <a href=https://www.ndbc.noaa.gov/ops.shtml>Maintenance Schedule</a>.						</p>Right whales are active off NY from November to April. Speed restrictions of 10 knots apply to vessels 65 feet or greater in specific areas along the mid-Atlantic coast. To learn more about right whales and rules protecting them, go to: <a href=http://www.nmfs.noaa.gov/pr/shipstrike>http://www.nmfs.noaa.gov/pr/shipstrike</a>"
44018,2002,2024,21,2024-08-30T18:10:00Z,41.255,-69.305,"CAPE COD - 9 NM North of Provincetown, MA",3-meter foam buoy,E,N,NDBC,US,3DV23,SCOOP payload,FZUS51.KBOX FZNT21.KWBC,"Caution: Right whales may be active in northeast waters year-round. Mandatory speed restrictions of 10 knots apply to vessels 65 feet or greater in specific areas and times along the US east coast. Voluntary speed restrictions may be in effect in other areas and times. For current information on speed-restricted areas, go to: <a href=http://www.nmfs.noaa.gov/pr/shipstrike>http://www.nmfs.noaa.gov/pr/shipstrike</a>"
44019,1994,1995,2,1995-06-12T01:00:00Z,36.4,-75.2,,3-meter discus buoy,E,N,NDBC,US,,VEEP payload,,
44020,2009,2026,18,2026-02-10T10:40:00Z,41.443,-70.186,NANTUCKET SOUND,3-meter foam buoy,E,N,NDBC,US,3DV04,SCOOP payload,FZUS51.KBOX,"<p>Caution: Right whales may be active in northeast waters year-round. NOAA recommends vessels reduce speeds below 10 knots, when consistent with safe navigation. For latest sightings, go to: <a href=https://www.nefsc.noaa.gov/psb/surveys/>https://www.nefsc.noaa.gov/psb/surveys/</a></p>"
44021,2006,2013,5,2013-01-09T16:04:00Z,43.782,-69.888,Buoy D - New Meadows River,Moored Buoy,E,NC,Northeastern Regional Association of Coastal Ocean Observing Systems,US,,,FZNT21.KWBC,"Caution: Right whales may be active in northeast waters year-round. NOAA may establish temporary Dynamic Management Areas (DMAs) to protect aggregations of right whales. Mariners are requested to transit DMAs at 10 knots or less when consistent with safe navigation. For information on currently active DMAs, go to: <a title=http://www.nmfs.noaa.gov/pr/shipstrike href=http://www.nmfs.noaa.gov/pr/shipstrike>http://www.nmfs.noaa.gov/pr/shipstrike</a><br />"
44022,2005,2024,20,2024-06-12T13:15:00Z,40.88,-73.73,Execution Rocks,Moored Buoy,E,Y,MYSOUND,US,,,FZUS51.KOKX,
44023,1991,1991,1,1991-04-06T00:00:00Z,37.5,-74.4,,3-meter discus buoy,E,N,NDBC,US,,DACT payload,,
44024,2004,2021,14,2021-11-04T21:04:00Z,42.312,-65.927,Buoy N01 - Northeast Channel,Moored Buoy,N,NC,Northeastern Regional Association of Coastal Ocean Observing Systems,US,,,,"Caution: Right whales may be active in northeast waters year-round. NOAA may establish temporary Dynamic Management Areas (DMAs) to protect aggregations of right whales. Mariners are requested to transit DMAs at 10 knots or less when consistent with safe navigation. For information on currently active DMAs, go to: <a href=http://www.nmfs.noaa.gov/pr/shipstrike>http://www.nmfs.noaa.gov/pr/shipstrike</a>"
44025,1975,2026,42,2026-02-10T10:50:00Z,40.25,-73.166,"LONG ISLAND - 30 NM South of Islip, NY",3-meter foam buoy,E,N,NDBC,US,3DV48,SCOOP payload,FZNT21.KWBC FZUS51.KOKX,"Right whales are active off NY from November to April. Speed restrictions of 10 knots apply to vessels 65 feet or greater in specific areas along the mid-Atlantic coast. To learn more about right whales and rules protecting them, go to: <a href=http://www.nmfs.noaa.gov/pr/shipstrike>http://www.nmfs.noaa.gov/pr/shipstrike</a>"
44026,1991,1991,1,1991-10-23T00:00:00Z,36,-73.5,,3-meter discus buoy,E,N,NDBC,US,,DACT payload,,
44027,2003,2026,24,2026-02-10T10:40:00Z,44.273,-67.314,"Jonesport, ME - 20 NM SE of Jonesport, ME",3-meter foam buoy,N,N,NDBC,US,3DV52,SCOOP payload,FZUS51.KCAR,"Caution: Right whales may be active in northeast waters year-round. NOAA may establish temporary Dynamic Management Areas (DMAs) to protect aggregations of right whales. Mariners are requested to transit DMAs at 10 knots or less when consistent with safe navigation. For information on currently active DMAs, go to: <a title=http://www.nmfs.noaa.gov/pr/shipstrike href=http://www.nmfs.noaa.gov/pr/shipstrike>http://www.nmfs.noaa.gov/pr/shipstrike</a><br />"
44028,1994,1997,4,1997-04-20T23:00:00Z,41.4,-71.08,Buzzard's Bay,USCG Large Navigational Buoy,E,N,NDBC,US,09,DACT payload,,"Caution: Right whales may be active in northeast waters year-round. NOAA recommends vessels reduce speeds below 10 knots, when consistent with safe navigation. For latest sightings, go to: <a br/  href=https://www.fisheries.noaa.gov/resource/map/north-atlantic-right-whale-sightings>https://www.fisheries.noaa.gov/resource/map/north-atlantic-right-whale-sightings</a><p>For area forecasts and warnings, select: <a href=https://www.weather.gov/box>Boston WFO</a></p>"
44029,2004,2026,21,2026-02-10T10:00:00Z,42.52,-70.57,Buoy A01 - Massachusetts Bay,Moored Buoy,E,NC,Northeastern Regional Association of Coastal Ocean Observing Systems,US,,,FZUS51.KBOX,"Caution: Right whales may be active in northeast waters year-round. Mandatory speed restrictions of 10 knots apply to vessels 65 feet or greater in specific areas and times along the US east coast. Voluntary speed restrictions may be in effect in other areas and times. For current information on speed-restricted areas, go to: <a title=http://www.nmfs.noaa.gov/pr/shipstrike href=http://www.nmfs.noaa.gov/pr/shipstrike>http://www.nmfs.noaa.gov/pr/shipstrike</a>"
44030,2004,2026,21,2026-02-10T09:30:00Z,43.183,-70.418,Buoy B01 - Western Maine Shelf,Moored Buoy,E,NC,Northeastern Regional Association of Coastal Ocean Observing Systems,US,,,FZUS51.KGYX,"Caution: Right whales may be active in northeast waters year-round. NOAA may establish temporary Dynamic Management Areas (DMAs) to protect aggregations of right whales. Mariners are requested to transit DMAs at 10 knots or less when consistent with safe navigation. For information on currently active DMAs, go to: <a href=http://www.nmfs.noaa.gov/pr/shipstrike>http://www.nmfs.noaa.gov/pr/shipstrike</a>"
44031,2004,2008,5,2008-06-30T23:04:00Z,43.57,-70.06,Buoy C0201 - Casco Bay,2-meter discus buoy,E,NC,Northeastern Regional Association of Coastal Ocean Observing Systems,US,,,FZUS51.KGYX,"Caution: Right whales may be active in northeast waters year-round. NOAA may establish temporary Dynamic Management Areas (DMAs) to protect aggregations of right whales. Mariners are requested to transit DMAs at 10 knots or less when consistent with safe navigation. For information on currently active DMAs, go to: <a href=http://www.nmfs.noaa.gov/pr/shipstrike>http://www.nmfs.noaa.gov/pr/shipstrike</a>"
44032,2004,2025,20,2025-12-20T17:00:00Z,43.715,-69.358,Buoy E01 - Central Maine Shelf,Moored Buoy,E,NC,Northeastern Regional Association of Coastal Ocean Observing Systems,US,,,FZUS51.KGYX,"Caution: Right whales may be active in northeast waters year-round. NOAA may establish temporary Dynamic Management Areas (DMAs) to protect aggregations of right whales. Mariners are requested to transit DMAs at 10 knots or less when consistent with safe navigation. For information on currently active DMAs, go to: <a href=http://www.nmfs.noaa.gov/pr/shipstrike>http://www.nmfs.noaa.gov/pr/shipstrike</a>"
44033,2004,2026,21,2026-02-10T09:00:00Z,44.06,-69,Buoy F01 - Penobscot Bay,Moored Buoy,E,NC,Northeastern Regional Association of Coastal Ocean Observing Systems,US,,,FZUS51.KGYX,"Caution: Right whales may be active in northeast waters year-round. NOAA may establish temporary Dynamic Management Areas (DMAs) to protect aggregations of right whales. Mariners are requested to transit DMAs at 10 knots or less when consistent with safe navigation. For information on currently active DMAs, go to: <a href=http://www.nmfs.noaa.gov/pr/shipstrike>http://www.nmfs.noaa.gov/pr/shipstrike</a>"
44034,2004,2026,21,2026-02-10T09:30:00Z,44.11,-68.11,Buoy I01 - Eastern Maine Shelf,Moored Buoy,E,NC,Northeastern Regional Association of Coastal Ocean Observing Systems,US,,,FZUS51.KCAR,"Caution: Right whales may be active in northeast waters year-round. NOAA may establish temporary Dynamic Management Areas (DMAs) to protect aggregations of right whales. Mariners are requested to transit DMAs at 10 knots or less when consistent with safe navigation. For information on currently active DMAs, go to: <a href=http://www.nmfs.noaa.gov/pr/shipstrike>http://www.nmfs.noaa.gov/pr/shipstrike</a>"
44035,2004,2008,5,2008-06-30T23:04:00Z,44.89,-67.02,Buoy J0201 - Cobscook Bay,2-meter discus buoy,E,NC,Northeastern Regional Association of Coastal Ocean Observing Systems,US,,,FZUS51.KCAR,"Caution: Right whales may be active in northeast waters year-round. NOAA may establish temporary Dynamic Management Areas (DMAs) to protect aggregations of right whales. Mariners are requested to transit DMAs at 10 knots or less when consistent with safe navigation. For information on currently active DMAs, go to: <a href=http://www.nmfs.noaa.gov/pr/shipstrike>http://www.nmfs.noaa.gov/pr/shipstrike</a>"
44037,2004,2024,19,2024-09-05T08:04:00Z,43.484,-67.883,Buoy M01 - Jordan Basin,Moored Buoy,E,NC,Northeastern Regional Association of Coastal Ocean Observing Systems,US,,,FZNT21.KWBC,"Caution: Right whales may be active in northeast waters year-round. NOAA may establish temporary Dynamic Management Areas (DMAs) to protect aggregations of right whales. Mariners are requested to transit DMAs at 10 knots or less when consistent with safe navigation. For information on currently active DMAs, go to: <a href=http://www.nmfs.noaa.gov/pr/shipstrike>http://www.nmfs.noaa.gov/pr/shipstrike</a>"
44038,2004,2008,5,2008-06-30T23:04:00Z,43.633,-66.55,Buoy L0102 - Scotian Shelf,2-meter discus buoy,E,NC,Northeastern Regional Association of Coastal Ocean Observing Systems,US,,,FZUS51.KGYX,"Caution: Right whales may be active in northeast waters year-round. NOAA may establish temporary Dynamic Management Areas (DMAs) to protect aggregations of right whales. Mariners are requested to transit DMAs at 10 knots or less when consistent with safe navigation. For information on currently active DMAs, go to: <a href=http://www.nmfs.noaa.gov/pr/shipstrike>http://www.nmfs.noaa.gov/pr/shipstrike</a>"
44039,2004,2024,20,2024-04-17T11:00:00Z,41.138,-72.655,Central Long Island Sound,Moored Buoy,E,Y,MYSOUND,US,,,FZUS51.KOKX,
44040,2004,2023,19,2023-09-05T21:00:00Z,40.956,-73.58,Western Long Island Sound,Moored Buoy,E,Y,MYSOUND,US,,,FZUS51.KOKX,
44041,2007,2025,18,2025-01-16T14:54:00Z,37.204,-76.777,"Jamestown, VA",Moored Buoy,E,CB,Chesapeake Bay Interpretive Buoy System (CBIBS),US,,,,Recovered for winter
44042,2007,2026,20,2026-02-02T15:54:00Z,38.033,-76.336,"Potomac, MD",Moored Buoy,E,CB,Chesapeake Bay Interpretive Buoy System (CBIBS),US,,,,
44043,2007,2024,13,2024-12-20T14:36:00Z,39.152,-76.391,"Patapsco, MD",Moored Buoy,E,CB,Chesapeake Bay Interpretive Buoy System (CBIBS),US,,,FZUS51.KLWX,Recovered for the winter.
44044,2005,2005,1,2005-11-28T17:00:00Z,38.389,-76.526,Patuxent River Buoy,Moored Buoy,E,B,Chesapeake Biological Lab,US,,,,
44052,2006,2008,3,2008-06-12T05:25:00Z,37.236,-76.399,Goodwin Islands,Marine Observation Buoy,E,VM,Virginia Institute of Marine Science (VIMS),US,,,,
44053,2006,2009,4,2009-01-17T15:49:00Z,37.244,-76.5,Gloucester Point,Marine Observation Buoy,E,VM,Virginia Institute of Marine Science (VIMS),US,,,,
44054,2007,2008,2,2008-01-29T16:50:00Z,38.883,-75.183,Lower Delaware Bay Buoy,Moored Buoy,E,DW,Delaware Coastal Management Program,US,,,,
44055,2007,2008,2,2008-01-29T16:50:00Z,39.122,-75.256,Central Delaware Bay,Moored Buoy,E,DW,Delaware Coastal Management Program,US,,,,
44056,2007,2026,20,2026-02-10T10:30:00Z,36.2,-75.714,"Duck FRF, NC",Waverider Buoy,E,AC,U.S. Army Corps of Engineers,US,,,FZUS52.KMHX,"Right whales are active off NC from November to April. Speed restrictions of 10 knots apply to vessels 65 feet or greater in specific areas and times along the mid-Atlantic coast. To learn more about right whales and rules protecting them, go to: <a href=http://www.nmfs.noaa.gov/pr/shipstrike/>http://www.nmfs.noaa.gov/pr/shipstrike/</a><a href=http://www.nmfs.noaa.gov/pr/shipstrike/>?</a>"
44057,2008,2017,10,2017-12-08T16:50:00Z,39.544,-76.075,"Susquehanna, MD",Moored Buoy,E,CB,Chesapeake Bay Interpretive Buoy System (CBIBS),US,,,FZUS51.KLWX,Buoy recovered for winter.
44058,2008,2026,19,2026-02-10T10:48:00Z,37.552,-76.251,"Stingray Point, VA",Moored Buoy,E,CB,Chesapeake Bay Interpretive Buoy System (CBIBS),US,,,FZUS51.KAKQ,
44059,2008,2016,9,2016-05-15T14:50:00Z,36.846,-76.298,"Norfolk, VA",Moored Buoy,E,CB,Chesapeake Bay Interpretive Buoy System (CBIBS),US,,,,Station 44059 has been disestablished as of 7/20/16.
44060,2007,2016,10,2016-09-02T18:30:00Z,41.263,-72.067,Eastern Long Island Sound,2.4-meter foam hull buoy,E,Y,MYSOUND,US,,,FZUS51.KOKX,
44061,2010,2017,8,2017-08-14T18:18:00Z,38.785,-77.036,"Upper Potomac, MD",Moored Buoy,E,CB,Chesapeake Bay Interpretive Buoy System (CBIBS),US,,,FZUS51.KLWX,Buoy recovered for winter.
44062,2010,2026,17,2026-01-24T14:48:00Z,38.553,-76.415,"Gooses Reef, MD",Moored Buoy,E,CB,Chesapeake Bay Interpretive Buoy System (CBIBS),US,,,FZUS51.KLWX,
44063,2010,2026,17,2026-01-13T17:00:00Z,38.963,-76.448,"Annapolis, MD",Moored Buoy,E,CB,Chesapeake Bay Interpretive Buoy System (CBIBS),US,,,FZUS51.KLWX,
44064,2011,2025,14,2025-01-27T14:00:00Z,36.979,-76.043,"First Landing, VA",Moored Buoy,E,CB,Chesapeake Bay Interpretive Buoy System (CBIBS),US,,,FZUS51.KAKQ,"Right whales are active off VA from November to April. Speed restrictions of 10 knots apply to vessels 65 feet or greater in specific areas along the mid-Atlantic coast. To learn more about right whales and rules protecting them, go to: <a href=http://www.nmfs.noaa.gov/pr/shipstrike>http://www.nmfs.noaa.gov/pr/shipstrike</a><a href=http://www.nmfs.noaa.gov/pr/shipstrike></a>"
44065,2008,2026,19,2026-02-10T10:50:00Z,40.369,-73.703,"New York Harbor Entrance - 15 NM SE of Breezy Point , NY",3-meter foam buoy,E,N,NDBC,US,3D58,SCOOP payload,FZUS51.KOKX FZUS51.KPHI,"Right whales are active off NY from November to April. Speed restrictions of 10 knots apply to vessels 65 feet or greater within the vicinity of this station between November 1 and April 30. To learn more about right whales and rules protecting them, go to: <a href=http://www.nmfs.noaa.gov/pr/shipstrike>http://www.nmfs.noaa.gov/pr/shipstrike</a>"
44066,2009,2023,15,2023-09-26T17:40:00Z,39.583,-72.601,"Texas Tower #4 - 75 NM East of Long Beach, NJ",3-meter foam buoy,E,N,NDBC,US,3DV46,SCOOP payload,FZNT22.KWBC,"Buoy recovered 4/16/24.			</p>Right whales are active off NJ from November to April. Speed restrictions of 10 knots apply to vessels 65 feet or greater in specific areas along the mid-Atlantic coast. To learn more about right whales and rules protecting them, go to: <a href=http://www.nmfs.noaa.gov/pr/shipstrike>http://www.nmfs.noaa.gov/pr/shipstrike</a>"
44067,2011,2013,3,2013-03-04T19:00:00Z,38.368,-76.996,"Potomac River, Near HWY 301",Buoy,E,IN,Intellicheck Mobilisa,US,,,,
44068,2014,2015,2,2015-02-20T11:40:00Z,37.314,-77.191,VCU Rice Rivers Center,Moored Buoy,E,CB,Chesapeake Bay Interpretive Buoy System (CBIBS),US,,,,
44069,2016,2024,9,2024-02-14T00:30:00Z,40.72,-73.093,Great South Bay,Buoy,E,ST,Stony Brook University,US,,,FZUS51.KOKX,Station recovered for winter
44070,2008,2010,3,2010-11-08T00:06:00Z,41.392,-71.004,Buzzards Bay MA. Offshore,1.8-meter discus buoy,E,N,NDBC,US,18D13,WAMDAS payload,,"<p>For area forecasts and warnings, select: <a href=https://www.weather.gov/box>Boston WFO</a></p><p>Met data for this area are available at <a href=http://www.ndbc.noaa.gov/station_page.php?station=buzm3>BUZM3</a>.</p><p>Station 44070 has been disestablished on June 13, 2016.</p>"
44072,2016,2026,11,2026-02-08T06:00:00Z,37.201,-76.266,"York Spit, VA",Moored Buoy,E,CB,Chesapeake Bay Interpretive Buoy System (CBIBS),US,,,FZUS51.KLWX,
44073,2019,2026,8,2026-02-10T09:45:00Z,43.02,-70.54,CO2 Gulf of Maine Buoy,Moored Buoy,E,NH,University of New Hampshire,US,,,,
44075,2020,2022,3,2022-11-13T14:00:00Z,40.363,-70.883,OOI Pioneer Inshore Surface Mooring,Buoy,E,OO,NSF Ocean Observatories Initiative,US,,,FZNT22.KWBC,
44076,2020,2022,3,2022-11-11T13:00:00Z,40.137,-70.775,OOI Pioneer Central Surface Mooring,Buoy,E,OO,NSF Ocean Observatories Initiative,US,,,FZNT22.KWBC,
44077,2020,2022,3,2022-11-10T16:00:00Z,39.94,-70.883,OOI Pioneer Offshore Surface Mooring,Buoy,E,OO,NSF Ocean Observatories Initiative,US,,,FZNT22.KWBC,
44078,2020,2026,7,2026-02-10T08:30:00Z,59.94,-39.52,OOI Irminger Sea Surface Mooring,Buoy,?,OO,NSF Ocean Observatories Initiative,US,,,,
44079,2024,2026,3,2026-02-10T09:00:00Z,36.175,-74.827,OOI Pioneer - Mid-Atlantic Bight Northern Surface Mooring,Moored Buoy,E,OO,NSF Ocean Observatories Initiative,US,,,,
44080,2025,2026,2,2026-01-22T23:18:00Z,39.223,-76.528,Baltimore,Moored Buoy,E,CB,Chesapeake Bay Interpretive Buoy System (CBIBS),US,,,,
44084,2022,2026,5,2026-02-10T06:26:00Z,38.537,-75.044,"Bethany Beach, DE (263)",Waverider Buoy,E,R,SCRIPPS,US,,,,
44085,2022,2026,5,2026-02-10T06:00:00Z,41.387,-71.032,"Buzzards Bay, MA (260)",Waverider Buoy,E,WN,Woods Hole Group/NERACOOS,US,,,FZUS51.KBOX,"Caution: Right whales may be active in northeast waters year-round. Mandatory speed restrictions of 10 knots apply to vessels 65 feet or greater in specific areas and times along the US east coast. Voluntary speed restrictions may be in effect in other areas and times. For current information on speed-restricted areas, go to: <a title=http://www.nmfs.noaa.gov/pr/shipstrike href=http://www.nmfs.noaa.gov/pr/shipstrike>http://www.nmfs.noaa.gov/pr/shipstrike</a>"
44086,2018,2026,9,2026-02-10T10:26:00Z,36.001,-75.421,"Nags Head, NC (243)",Waverider Buoy,E,SI,UNC Coastal Studies Institute,US,,,,
44087,2018,2026,9,2026-01-20T12:56:00Z,37.026,-76.151,"Thimble Shoal, VA (240)",Waverider Buoy,E,NV,U.S. Navy,US,,,,
44088,2017,2026,9,2026-02-10T10:30:00Z,36.611,-74.839,"Virginia Beach Offshore, VA (171)",Waverider Buoy,E,R,SCRIPPS,US,,,FZUS52.KMLB,"Right whales are active off VA from November to April. Speed restrictions of 10 knots apply to vessels 65 feet or greater in specific areas and times along the U.S. East Coast.  It is illegal to approach right whales within 500 yards.  To learn more about right whales and rules protecting them, go to: <a href=http://www.nmfs.noaa.gov/pr/shipstrike>http://www.nmfs.noaa.gov/pr/shipstrike</a>.<br /><br />"
44089,2016,2026,11,2026-02-10T10:26:00Z,37.756,-75.334,"Wallops Island, VA (224)",Waverider Buoy,E,AC,U.S. Army Corps of Engineers,US,,,FZUS51.KPHI,"Right whales are active off VA from November to April. Speed restrictions of 10 knots apply to vessels 65 feet or greater in specific areas along the mid-Atlantic coast. To learn more about right whales and rules protecting them, go to: <a href=http://www.nmfs.noaa.gov/pr/shipstrike>http://www.nmfs.noaa.gov/pr/shipstrike</a><a href=http://www.nmfs.noaa.gov/pr/shipstrike></a>"
44090,2016,2026,11,2026-02-10T10:30:00Z,41.84,-70.329,"Cape Cod Bay, MA (221)",Waverider Buoy,E,WN,Woods Hole Group/NERACOOS,US,,,FZUS51.KBOX,"Caution: Right whales may be active in northeast waters year-round. Mandatory speed restrictions of 10 knots apply to vessels 65 feet or greater in specific areas and times along the US east coast. Voluntary speed restrictions may be in effect in other areas and times. For current information on speed-restricted areas, go to: <a title=http://www.nmfs.noaa.gov/pr/shipstrike href=http://www.nmfs.noaa.gov/pr/shipstrike>http://www.nmfs.noaa.gov/pr/shipstrike</a>"
44091,2014,2026,13,2026-02-10T10:30:00Z,39.769,-73.77,"Barnegat, NJ (209)",Waverider Buoy,E,AC,U.S. Army Corps of Engineers,US,,,FZUS51.KPHI,"Right whales are active off NJ from November to April.? Speed restrictions of 10 knots apply to vessels 65 feet or greater in specific areas along the mid-Atlantic coast.? To learn more about right whales and rules protecting them, go to: <a href=http://www.nmfs.noaa.gov/pr/shipstrike>http://www.nmfs.noaa.gov/pr/shipstrike</a>"
44092,2014,2014,1,2014-10-06T17:17:00Z,42.942,-70.632,"Isle of Shoals, NH (211)",Waverider Buoy,E,NO,UNH/Oscilla Power/UW-APL,US,,,,
44093,2014,2017,4,2017-04-14T11:21:00Z,36.872,-75.492,"Offshore Wind Energy Area, VA (210)",Waverider Buoy,E,VD,"Virginia Department of Mines, Minerals, and Energy",US,,,FZUS51.KAKQ,"Right whales are active off VA from November to April.? Speed restrictions of 10 knots apply to vessels 65 feet or greater in specific areas along the mid-Atlantic coast.? To learn more about right whales and rules protecting them, go to: <a href=http://www.nmfs.noaa.gov/pr/shipstrike>http://www.nmfs.noaa.gov/pr/shipstrike</a><a href=http://www.nmfs.noaa.gov/pr/shipstrike>?</a>"
44094,2014,2015,2,2015-07-18T20:33:00Z,40.585,-73.106,"Fire Island Nearshore, NY (207)",Waverider Buoy,E,R,SCRIPPS,US,,,FZUS51.KOKX,"Right whales are active off NY. Speed restrictions of 10 knots apply to vessels 65 feet or greater within the vicinity of this station. To learn more about right whales and rules protecting them, go to: <a href=http://www.nmfs.noaa.gov/pr/shipstrike>http://www.nmfs.noaa.gov/pr/shipstrike</a>"
44095,2012,2026,15,2026-02-10T10:56:00Z,35.75,-75.33,"Oregon Inlet, NC (192)",Waverider Buoy,E,SI,UNC Coastal Studies Institute,US,,,FZUS52.KMHX,"Right whales are active off NC from November to April. Speed restrictions of 10 knots apply to vessels 65 feet or greater in specific areas and times along the mid-Atlantic coast. To learn more about right whales and rules protecting them, go to: <a href=http://www.nmfs.noaa.gov/pr/shipstrike/>http://www.nmfs.noaa.gov/pr/shipstrike/</a><a href=http://www.nmfs.noaa.gov/pr/shipstrike/>&nbsp;</a>"
44096,2012,2018,7,2018-04-06T19:51:00Z,37.023,-75.81,"Cape Charles, VA (186)",Waverider Buoy,E,R,SCRIPPS,US,,,FZUS51.KAKQ,"Right whales are active off VA from November to April. Speed restrictions of 10 knots apply to vessels 65 feet or greater in specific areas along the mid-Atlantic coast. To learn more about right whales and rules protecting them, go to: <a href=http://www.nmfs.noaa.gov/pr/shipstrike>http://www.nmfs.noaa.gov/pr/shipstrike</a><a href=http://www.nmfs.noaa.gov/pr/shipstrike></a>"
44097,2009,2026,18,2026-02-10T03:26:00Z,40.981,-71.117,"Block Island, RI  (154)",Waverider Buoy,E,R,SCRIPPS,US,,,FZUS51.KBOX,"Right whales are active off NY from November to April. Speed restrictions of 10 knots apply to vessels 65 feet or greater in specific areas along the mid-Atlantic coast. To learn more about right whales and rules protecting them, go to: <a href=http://www.nmfs.noaa.gov/pr/shipstrike>http://www.nmfs.noaa.gov/pr/shipstrike</a>"
44098,2008,2026,19,2026-02-10T10:30:00Z,42.801,-70.169,"Jeffrey's Ledge, NH (160)",Waverider Buoy,E,NH,University of New Hampshire,US,,,FZUS51.KBOX,"Caution: Right whales may be active in northeast waters year-round. Mandatory speed restrictions of 10 knots apply to vessels 65 feet or greater in specific areas and times along the US east coast. Voluntary speed restrictions may be in effect in other areas and times. For current information on speed-restricted areas, go to: <a title=http://www.nmfs.noaa.gov/pr/shipstrike href=http://www.nmfs.noaa.gov/pr/shipstrike>http://www.nmfs.noaa.gov/pr/shipstrike</a>"
44099,2008,2026,19,2026-02-10T10:26:00Z,36.904,-75.756,"Cape Henry, VA (147)",Waverider Buoy,E,R,SCRIPPS,US,,,FZUS51.KAKQ,"Right whales are active off VA from November to April.? Speed restrictions of 10 knots apply to vessels 65 feet or greater in specific areas along the mid-Atlantic coast.? To learn more about right whales and rules protecting them, go to: <a href=http://www.nmfs.noaa.gov/pr/shipstrike>http://www.nmfs.noaa.gov/pr/shipstrike</a><a href=http://www.nmfs.noaa.gov/pr/shipstrike>?</a>"
44100,2008,2026,19,2026-02-10T10:30:00Z,36.258,-75.591,"Duck FRF 26m, NC (430)",Waverider Buoy,E,R,SCRIPPS,US,,,FZUS51.KAKQ,"Right whales are active off NC from November to April. Speed restrictions of 10 knots apply to vessels 65 feet or greater in specific areas and times along the mid-Atlantic coast. To learn more about right whales and rules protecting them, go to: <a href=http://www.nmfs.noaa.gov/pr/shipstrike/>http://www.nmfs.noaa.gov/pr/shipstrike/</a><a href=http://www.nmfs.noaa.gov/pr/shipstrike/></a>"
44172,2011,2012,2,2012-05-28T12:01:00Z,44.5,-63.408,"Halifax Harbor, NS, Canada - 176",Waverider Buoy,N,R,SCRIPPS,US,,,,
44235,2011,2011,1,2011-05-13T19:54:00Z,47.263,-57.341,"South Ramea Island, Newfoundland (170)",Waverider Buoy,N,C,Environment and Climate Change Canada,CA,,,,
45001,1979,2025,47,2025-12-02T13:30:00Z,48.064,-87.777,"MID SUPERIOR- 60 NM North Northeast Hancock, MI",2.1-meter ionomer foam buoy,E,N,NDBC,US,2.6D57,SCOOP payload,FZUS63.KMQT,Recovered for winter 12/2/25.
45002,1979,2025,47,2025-11-14T20:40:00Z,45.344,-86.411,NORTH MICHIGAN- Halfway between North Manitou and Washington Islands.,2.1-meter ionomer foam buoy,E,N,NDBC,US,2.6D57,SCOOP payload,FZUS63.KMKX,Buoy recovered for the winter on 11/14/25
45003,1980,2025,46,2025-11-17T21:10:00Z,45.351,-82.84,"NORTH HURON - 32NM Northeast of Alpena, MI",2.3-meter foam discus buoy,E,N,NDBC,US,2.6D57,SCOOP payload,FZUS63.KDTX,Buoy retrieved for winter 11/17/25.
45004,1980,2025,46,2025-12-02T19:10:00Z,47.584,-86.587,"EAST SUPERIOR -70 NM NE Marquette, MI",2.3-meter foam discus buoy,E,N,NDBC,US,2.6D57,SCOOP payload,FZUS63.KMQT,Recovered for winter 12/2/25.
45005,1980,2025,46,2025-11-19T23:40:00Z,41.677,-82.398,"WEST ERIE - 16 NM NW of Lorain, OH",2.3-meter foam discus buoy,E,N,NDBC,US,2.6D57,SCOOP payload,FZUS61.KCLE,Buoy recovered for Winter 11/19/25.
45006,1981,2025,45,2025-12-02T00:10:00Z,47.335,-89.793,"WEST SUPERIOR - 30NM NE of Outer Island, WI",2.3-meter foam discus buoy,E,N,NDBC,US,2.6D57,SCOOP payload,FZUS63.KMQT,Buoy recovered for winter on 12/10/25.
45007,1981,2025,45,2025-12-08T19:10:00Z,42.696,-86.97,"SOUTH MICHIGAN - 43NM East Southeast of Milwaukee, WI",2.3-meter foam discus buoy,E,N,NDBC,US,2.6D57,SCOOP payload,FZUS63.KMKX,Buoy recovered for winter on 12/8/25.
45008,1981,2025,45,2025-11-18T15:30:00Z,44.283,-82.416,"SOUTH HURON - 43NM East of Oscoda, MI",2.3-meter foam discus buoy,E,N,NDBC,US,2.6D57,SCOOP payload,FZUS63.KDTX,Buoy retrieved for winter 11/18/25.
45009,1983,1983,1,1983-12-13T14:00:00Z,41.6,-82,,3-meter discus buoy,E,N,NDBC,US,,DACT payload,,
45010,1993,1995,3,1995-11-13T16:00:00Z,43,-87.8,,2.4-meter discus buoy,E,N,NDBC,US,,DACT payload,,
45011,1997,1997,1,1997-11-23T23:00:00Z,43.02,-86.27,Grand Haven Michigan,3-meter discus buoy,E,N,NDBC,US,02,VEEP payload,,
45012,2002,2025,24,2025-11-10T20:20:00Z,43.619,-77.405,"EAST Lake Ontario  - 20NM North Northeast of Rochester, NY",2.3-meter foam discus buoy,E,N,NDBC,US,2.6D57,SCOOP payload,FZUS61.KBUF,Buoy recovered for season on 11/10/25.
45013,2012,2025,14,2025-11-21T18:00:00Z,43.098,-87.85,"ATW20 - Atwater Park, WI",Buoy,C,WM,University of Wisconsin-Milwaukee,US,,,FZUS53.KMKX,UWM is currently supporting buoy cameras on select stations in the Great Lakes. Click <a href=/ndbcexit.php?url=https://uwm.edu/glos/atwater-deep-dashboard/>here </a>to see the latest image for this station. Buoy recovered for the winter 11/21/25.
45014,2012,2025,13,2025-10-27T20:00:00Z,44.795,-87.759,"GB17 - South Green Bay, WI",Buoy,C,WM,University of Wisconsin-Milwaukee,US,,,FZUS53.KGRB,"Buoy recovered for winter.</p>UWM is currently supporting buoy cameras on select stations in the Great Lakes. Click <a href=/ndbcexit.php?url=https://uwm.edu/glos/green-bay-dashboard/>here </a>to see the latest image for this station.</p>Near-bottom water quality data is now being displayed. To view near-surface water quality data, click <a href=/ndbcexit.php?url=https://glbuoys.glos.us/45014>here</a>."
45015,2011,2016,5,2016-09-20T17:00:00Z,41.714,-87.527,"Calumet Beach, Chicago, IL",Buoy,C,CH,Chicago Park District,US,,,,
45016,2011,2015,4,2015-09-14T02:00:00Z,41.783,-87.573,"Sixth-third St. Beach, Chicago, IL",Buoy,,CH,Chicago Park District,US,,,,
45017,2011,2011,1,2011-09-05T02:00:00Z,41.903,-87.622,"Oak St. Beach, Chicago, IL",Buoy,C,CH,Chicago Park District,US,,,,
45018,2011,2016,5,2016-09-14T23:00:00Z,41.968,-87.637,"Montrose Ave. Beach, Chicago, IL",Buoy,C,CH,Chicago Park District,US,,,,
45019,2011,2011,1,2011-09-09T01:00:00Z,41.979,-87.649,"Foster Ave. Beach, Chicago, IL",Buoy,C,CH,Chicago Park District,US,,,,
45020,2009,2018,4,2018-10-09T17:10:00Z,44.789,-85.604,"Grand Traverse Bay South Buoy, MI",Moored Buoy,E,NI,Northwestern Michigan College,US,,,FZUS53.KAPX,Buoy recovered for winter.<p>LimnoTech is currently supporting buoy cameras on select stations in the Great Lakes. Click <a href=/ndbcexit.php?url=http://www.limnotechdata.com/stations/albums/LGTB/LGTBImage.jpg>here </a>to see the latest image for this station.
45022,2010,2025,15,2025-10-08T06:00:00Z,45.403,-85.088,"Little Traverse Bay Buoy, MI",Moored Buoy,E,MC,University of Michigan CILER,US,,,FZUS53.KAPX,Buoy recovered for winter.
45023,2010,2025,16,2025-10-15T13:20:00Z,47.279,-88.611,"North Entry Buoy, North Keweenaw Peninsula, MI",Moored Buoy,E,MT,Michigan Technological University,US,,,FZUS53.KMQT,Recovered for winter
45024,2012,2025,14,2025-10-03T15:00:00Z,43.977,-86.56,"Ludington Buoy, MI",Moored Buoy,E,MC,University of Michigan CILER,US,,,FZUS53.KGRR,Buoy recovered for winter.
45025,2011,2025,15,2025-10-08T12:20:00Z,46.95,-88.409,"South Entry Buoy, South Keweenaw Peninsula, MI",Buoy,E,MT,Michigan Technological University,US,,,FZUS53.KMQT,Recovered for winter
45026,2011,2025,15,2025-11-25T19:30:00Z,41.983,-86.617,"Cook Nuclear Plant Buoy, Stevensville, MI",Buoy,E,LT,Limno Tech,US,,,,Buoy recovered for winter.
45027,2011,2025,15,2025-10-14T18:10:00Z,46.864,-91.929,"McQuade Harbor Nearshore, MN",Buoy,C,MN,"University of Minnesota, Duluth",US,,,FZUS53.KDLH,Buoy recovered for the season.
45028,2011,2025,15,2025-10-14T18:10:00Z,46.81,-91.84,Western Lake Superior,Buoy,C,MN,"University of Minnesota, Duluth",US,,,FZUS63.KMQT,Buoy recovered for season.
45029,2012,2025,14,2025-11-08T16:20:00Z,42.801,-86.264,"Holland Buoy, MI",Buoy,E,LT,Limno Tech,US,,,FZUS53.KGRR,Buoy recovered for season.
45161,2012,2025,14,2025-09-22T17:00:00Z,43.179,-86.336,"Muskegon Buoy, MI",Buoy,E,G,GLERL,US,,,FZUS53.KGRR,Buoy retrieved for winter.
45162,2012,2025,14,2025-09-16T16:20:00Z,44.984,-83.269,"Thunder Bay Buoy, Alpena, MI",Buoy,E,G,GLERL,US,,,FZUS53.KAPX,Buoy retrieved for winter.
45163,2012,2025,14,2025-09-17T19:00:00Z,43.988,-83.599,"Saginaw Bay Buoy, MI",Buoy,E,G,GLERL,US,,,FZUS53.KDTX,Buoy retrieved for winter.
45164,2012,2025,13,2025-11-20T17:00:00Z,41.734,-81.698,"Cleveland Buoy, OH",Buoy,E,LT,Limno Tech,US,,,FZUS61.KCLE,Buoy recovered for season.
45165,2013,2025,13,2025-11-06T16:50:00Z,41.806,-83.271,"Toledo Water Intake Buoy, Oregon, OH",Buoy,E,LT,Limno Tech,US,,,FZUS51.KCLE,</p> LimnoTech is currently supporting buoy cameras on select stations in the Great Lakes.  Click <a href=/ndbcexit.php?url=http://www.limnotechdata.com/stations/albums/Toledo/ToledoImage.jpg>here </a>to see the latest image for this station.		Buoy recovered for season.
45166,2013,2019,6,2019-10-31T23:45:00Z,44.992,-73.115,Lake Champlain - Inland Sea,Buoy,E,VE,Vermont EPSCOR,US,,,,Buoy recovered for winter.
45167,2014,2025,10,2025-10-05T21:20:00Z,42.186,-80.137,"Erie Nearshore Buoy, Erie, PA",Buoy,E,RC,Regional Science Consortium,US,,,FZUS51.KCLE,
45168,2014,2025,12,2025-11-08T20:20:00Z,42.396,-86.331,"South Haven Buoy, MI",Buoy,E,LT,Limno Tech,US,,,FZUS53.KGRR,Buoy recovered for season.
45169,2015,2020,6,2020-11-08T21:30:00Z,41.592,-81.792,"Lakewood Buoy, OH",Buoy,E,LT,Limno Tech,US,,,FZUS61.KCLE,Buoy recovered for winter.</p> LimnoTech is currently supporting buoy cameras on select stations in the Great Lakes.<br />Click <a href=/ndbcexit.php?url=http://www.limnotechdata.com/stations/albums/Cleveland/ClevelandImage.jpg>here </a>to see the latest image for this station.
45170,2013,2025,13,2025-09-16T16:00:00Z,41.755,-86.968,"Michigan City Buoy, IN",Buoy,C,II,Illinois-Indiana Sea Grant and Purdue Civil Engineering,US,,,FZUS53.KIWX,Buoy recovered for winter.
45171,2015,2017,3,2017-11-17T00:00:00Z,46.724,-87.411,"Granite Island Buoy, Granite Island, MI",Buoy,E,NN,Northern Michigan University,US,,,FZUS63.KMQT,Buoy recovered for the winter.
45172,2015,2020,5,2020-10-14T02:20:00Z,46.741,-85.976,"Grand Marais Buoy, Grand Marais, MI",Buoy,E,NN,Northern Michigan University,US,,,FZUS53.KMQT,Station recovered for winter.
45173,2015,2020,6,2020-10-20T13:10:00Z,46.573,-86.571,"Munising Buoy, Munising, MI",Buoy,E,NN,Northern Michigan University,US,,,FZUS53.KMQT,Station recovered for winter.
45174,2015,2025,11,2025-11-04T14:10:00Z,42.135,-87.655,"Wilmette Buoy, IL",Buoy,C,IG,Illinois-Indiana Sea Grant,US,,,FZUS53.KLOT,Buoy recovered for winter.
45175,2015,2025,11,2025-10-22T11:20:00Z,45.825,-84.772,"Mackinac Straits West, Mackinaw City, MI",Buoy,E,MT,Michigan Technological University,US,,,FZUS53.KAPX,Buoy recovered for winter.
45176,2016,2025,10,2025-11-20T19:10:00Z,41.55,-81.765,"Cleveland Intake Crib Buoy, OH",Buoy,E,LT,Limno Tech,US,,,FZUS51.KCLE,Buoy recovered for season.
45177,2016,2019,4,2019-09-11T15:00:00Z,41.894,-87.613,"Ohio St. Beach, Chicago, IL",Buoy,C,CH,Chicago Park District,US,,,FZUS53.KLOT,Buoy recovered for winter.
45178,2017,2025,7,2025-09-26T14:00:00Z,44.603,-73.394,"1 NM SE of Valcour Island, NY",Buoy,E,PL,SUNY Plattsburgh Center for Earth and Environmental Science/Lake Champlain Research Institute,US,,,,Buoy recovered for winter.
45179,2017,2017,1,2017-11-19T03:01:00Z,47.195,-87.224,Stannard Rock Buoy,Buoy,E,SW,Superior Watershed Partnership,US,,,FZUS63.KMQT,Buoy recovered for season.
45180,2017,2023,6,2023-11-07T05:56:00Z,48.019,-87.8,"Isle of Royale East, MI (230)",Waverider Buoy,E,AC,U.S. Army Corps of Engineers,US,,,FZUS63.KMQT,Station recovered for winter .
45183,2018,2023,6,2023-10-17T22:00:00Z,44.982,-85.831,Sleeping Bear Dunes,Moored Buoy,E,SD,National Park Service - Sleeping Bear Dunes,US,,,FZUS53.KAPX,Recovered for Winter.
45184,2021,2021,1,2021-06-20T04:50:00Z,44.55,-87.959,Green Bay East Buoy,Moored Buoy,C,WM,University of Wisconsin-Milwaukee,US,,,FZUS53.KGRB,
45185,2021,2021,1,2021-06-19T02:21:00Z,44.577,-87.987,Green Bay West Buoy,Moored Buoy,C,WM,University of Wisconsin-Milwaukee,US,,,FZUS53.KGRB,
45186,2018,2025,8,2025-11-25T14:10:00Z,42.368,-87.795,"Waukegan Buoy, IL",Moored Buoy,C,UC,University of Illinois at Urbana-Champaign,US,,,FZUS53.KLOT,Buoy recovered for winter.
45187,2018,2025,8,2025-11-25T13:40:00Z,42.491,-87.779,"Winthrop Harbor Buoy, IL",Moored Buoy,C,UC,University of Illinois at Urbana-Champaign,US,,,FZUS53.KMKX,Recovered for winter
45188,2019,2020,2,2020-10-02T13:45:00Z,44.094,-73.423,Champlain Bridge Buoy,Buoy,E,PL,SUNY Plattsburgh Center for Earth and Environmental Science/Lake Champlain Research Institute,US,,,,Buoy retrieved for winter.
45194,2021,2025,5,2025-10-22T13:30:00Z,45.804,-84.792,"McGulpin Point North, MI (253)",Waverider Buoy,E,MT,Michigan Technological University,US,,,FZUS53.KAPX,Buoy recovered for winter.
45195,2021,2022,2,2022-09-26T11:30:00Z,44.488,-73.339,"Schuyler Reef, NY (251)",Waverider Buoy,E,G,GLERL,US,,,,Station has been disestablished.
45196,2021,2025,5,2025-11-20T05:50:00Z,41.521,-81.88,"Rocky River, OH",Buoy,E,LT,Limno Tech,US,,,FZUS51.KCLE,Buoy recovered for season.
45197,2021,2025,4,2025-11-21T16:50:00Z,41.619,-81.617,"Euclid, OH",Buoy,E,LT,Limno Tech,US,,,FZUS51.KCLE,Buoy retrieved for winter.
45198,2021,2025,5,2025-11-04T19:40:00Z,41.892,-87.563,Chicago Buoy,Buoy,C,II,Illinois-Indiana Sea Grant and Purdue Civil Engineering,US,,,FZUS53.KLOT,Recovered for winter
45199,2022,2025,4,2025-09-23T15:00:00Z,42.703,-87.649,Salmon Unlimited Wisconsin,Buoy,C,SU,Salmon Unlimited Wisconsin,US,,,,Recovered for winter
45200,2023,2025,3,2025-10-16T17:30:00Z,41.724,-83.37,Maumee Bay Buoy,Moored Buoy,E,CA,Cleveland Water Alliance,US,,,,Buoy recovered for season.
45201,2022,2025,4,2025-10-24T20:10:00Z,41.601,-82.781,Erie Islands Buoy,Moored Buoy,E,CA,Cleveland Water Alliance,US,,,,Buoy recovered for season.
45202,2022,2025,4,2025-10-24T19:10:00Z,41.532,-82.941,Port Clinton Buoy,Moored Buoy,E,CA,Cleveland Water Alliance,US,,,,Buoy recovered for season.
45203,2022,2025,4,2025-12-04T18:00:00Z,41.393,-82.512,Huron Buoy,Moored Buoy,E,CA,Cleveland Water Alliance,US,,,,
45204,2022,2025,4,2025-11-19T15:50:00Z,41.508,-82.115,Sheffield Buoy,Moored Buoy,E,CA,Cleveland Water Alliance,US,,,,Buoy retrieved for winter.
45205,2022,2025,4,2025-11-20T19:10:00Z,41.501,-81.748,Edgewater Beach Buoy,Moored Buoy,E,CA,Cleveland Water Alliance,US,,,,Buoy retrieved for winter.
45206,2022,2025,4,2025-11-20T19:10:00Z,41.585,-81.583,Euclid Beach Buoy,Moored Buoy,E,CA,Cleveland Water Alliance,US,,,,Buoy retrieved for winter.
45207,2022,2025,4,2025-11-12T19:40:00Z,41.762,-81.331,Fairport Harbor Buoy,Moored Buoy,E,CA,Cleveland Water Alliance,US,,,,Buoy retrieved for winter.
45208,2022,2025,4,2025-11-11T19:40:00Z,41.934,-80.747,Ashtabula Buoy,Moored Buoy,E,CA,Cleveland Water Alliance,US,,,,Buoy retrieved for winter.
45209,2022,2025,4,2025-11-14T17:00:00Z,43.127,-82.391,"Lakeport Buoy, MI",Moored Buoy,E,GA,Great Lakes Water Authority,US,,,FZUS53.KDTX,
45210,2023,2025,3,2025-10-16T03:56:00Z,44.055,-87.05,"Rawley Point East, WI (269)",Waverider Buoy,C,R,SCRIPPS,US,,,FZUS63.KMQT,
45211,2023,2025,3,2025-10-29T16:26:00Z,46.973,-86.568,"Grand Island North, MI (268)",Waverider Buoy,C,R,SCRIPPS,US,,,,Buoy recovered for winter.
45212,2023,2026,4,2026-02-10T10:40:00Z,45.351,-82.84,North Huron Spotter,Spotter Buoy,E,MT,Michigan Technological University,US,,,FZUS53.KAPX,
45213,2023,2026,4,2026-02-10T10:25:00Z,47.585,-86.585,East Superior Spotter,Spotter Buoy,E,MT,Michigan Technological University,US,,,FZUS53.KMQT,
45214,2023,2026,4,2026-02-10T10:25:00Z,42.674,-87.026,South Michigan Spotter,Spotter Buoy,E,MT,Michigan Technological University,US,,,FZUS53.KGRR,
45215,2024,2026,3,2026-01-25T06:56:00Z,43.501,-76.539,"Oswego, NY (274)",Waverider Buoy,E,R,SCRIPPS,US,,,FZUS51.KBUF,
45216,2024,2025,2,2025-09-19T15:20:00Z,46.932,-89.349,"Ontonagon, MI",Moored Buoy,C,MT,Michigan Technological University,US,,,,Recovered for winter
45218,2024,2025,2,2025-12-18T18:20:00Z,43.731,-87.624,"Wisconsin Shipwreck Coast NMS / Sheboygan, WI",Buoy,,WD,"University of Wisconsin-Madison, Division of Extension",US,,,,Buoy recovered for season.
45219,2024,2025,2,2025-06-13T21:50:00Z,47.021,-91.625,Two Harbors Nearshore Buoy,Moored Buoy,C,MN,"University of Minnesota, Duluth",US,,,,Buoy recovered
45221,2025,2025,1,2025-10-02T14:40:00Z,44.756,-73.355,North Lake Champlain,Moored Buoy,E,PL,SUNY Plattsburgh Center for Earth and Environmental Science/Lake Champlain Research Institute,US,,,,Buoy recovered for the winter
45T01,2018,2018,1,2018-10-31T23:50:00Z,48.008,-87.666,"MID SUPERIOR- 60NM North Northeast Hancock, MI",2.1-meter ionomer foam buoy,E,N,NDBC,US,2.1D02,SCOOP payload,FZUS63.KMQT,NDBC Engineering test station.	Buoy retrieved for winter 11/08/2018.
46001,1972,2026,55,2026-02-10T10:40:00Z,56.3,-148.021,"WESTERN GULF OF ALASKA  - 175NM SE of Kodiak, AK",3-meter foam buoy w/ seal cage,H,N,NDBC,US,3DV13,SCOOP payload,FZAK61.PAFC,
46002,1975,2026,49,2026-02-10T10:40:00Z,42.57,-130.46,"WEST OREGON - 275NM West of Coos Bay, OR",3-meter foam buoy w/ seal cage,A,N,NDBC,US,3DV56,SCOOP payload,,
46003,1976,1999,24,1999-08-11T23:00:00Z,51.831,-155.85,S ALEUTIANS,6-meter NOMAD buoy,A,N,NDBC,US,21,DACT payload,,Buoy 46003 disestablished in 1999.  Buoy 46066 was established nearby.
46004,1976,2026,14,2026-02-10T11:00:00Z,50.93,-136.1,Middle Nomad,6-meter NOMAD buoy,A,C,Environment and Climate Change Canada,CA,,,,
46005,1976,2024,46,2024-11-19T21:30:00Z,46.1,-131.001,"WEST WASHINGTON - 300NM West of Aberdeen, WA",3-meter discus buoy w/ seal cage,A,N,NDBC,US,3D44,SCOOP payload,,
46006,1977,2026,48,2026-02-10T10:50:00Z,40.754,-137.464,"SOUTHEAST PAPA - 600NM West of Eureka, CA",3-meter foam buoy,P,N,NDBC,US,3DV19,SCOOP payload,,
46007,1977,1979,3,1979-06-16T00:00:00Z,59.2,-152.7,,6-meter NOMAD buoy,A,N,NDBC,US,,MVXI payload,,(formerly eb39)
46008,1977,1979,3,1979-01-15T12:00:00Z,57.1,-151.7,,12-meter discus buoy,A,N,NDBC,US,,MVXII payload,,(formerly eb72)
46009,1977,1979,3,1979-10-06T15:00:00Z,60.2,-146.8,,6-meter NOMAD buoy,A,N,NDBC,US,,MVXI payload,,(formerly eb45)
46010,1979,1991,13,1991-04-13T18:00:00Z,46.2,-124.2,,USCG Large Navigational Buoy,P,N,NDBC,US,,GSBP payload,,
46011,1980,2026,46,2026-02-10T10:40:00Z,34.868,-120.857,"SANTA MARIA - 21NM NW of Point Arguello, CA",3-meter discus buoy w/ seal cage,P,N,NDBC,US,3D26,SCOOP payload,FZUS56.KLOX,
46012,1980,2023,44,2023-02-27T22:40:00Z,37.363,-122.881,"HALF MOON BAY - 24NM SSW of San Francisco, CA",Uncrewed Surface Vehicle,P,N,NDBC,US,,DataXplorer,FZUS56.KMTR,"Previous data provided by Saildrone for this station are available at:<br /><a href=https://www.ndbc.noaa.gov/station_page.php?station=1801589>SD-1073 (1801589)</a> -- 0000Z, 9/1/23 to 2359Z, 4/25/24 and 2000Z, 5/8/25 to 0000Z, 8/4/25<br /><a href=https://www.ndbc.noaa.gov/station_page.php?station=1801593>SD-1077 (1801593)</a> -- 1200Z, 7/27/24 to 1959Z, 5/8/25<br /><a href=https://www.ndbc.noaa.gov/station_page.php?station=1801583>SD-1063 (1801583)</a> -- 0000Z, 4/26/24 to 0330Z, 7/24/24"
46013,1981,2026,46,2026-02-10T10:40:00Z,38.242,-123.301,"BODEGA BAY - 48NM NW of San Francisco, CA",3-meter discus buoy w/ seal cage,P,N,NDBC,US,3D76,SCOOP payload,FZUS56.KMTR,
46014,1981,2026,46,2026-02-10T10:40:00Z,39.196,-123.969,"PT ARENA - 19NM North of Point Arena, CA",3-meter discus buoy w/ seal cage,P,N,NDBC,US,3D30,SCOOP payload,FZUS56.KEKA,
46015,2002,2026,24,2026-02-10T10:50:00Z,42.747,-124.823,"PORT ORFORD - 15 NM West of Port Orford, OR",3-meter discus buoy w/ seal cage,P,N,NDBC,US,3D12,SCOOP payload,FZUS56.KMFR,
46016,1981,1988,8,1988-06-09T06:00:00Z,63.283,-170.3,,Platform EXXON,A,N,NDBC,US,,,,
46017,1981,1988,8,1988-12-12T03:00:00Z,60.283,-172.3,,Platform EXXON 6,A,N,NDBC,US,,,,
46018,1981,1985,5,1985-03-15T19:00:00Z,60.283,-177,,MAREX,A,N,NDBC,US,,,,
46019,1981,1983,3,1983-07-08T18:00:00Z,57.2,-170.3,,Platform,A,N,NDBC,US,,,,
46020,1981,2015,5,2015-12-31T23:54:00Z,55.883,-168,,MAREX,A,N,NDBC,US,,,,
46021,1981,2016,6,2016-01-11T17:57:00Z,57.7,-160,,MAREX,A,N,NDBC,US,,,,
46022,1982,2026,45,2026-02-10T10:40:00Z,40.763,-124.577,"EEL RIVER - 17NM WSW of Eureka, CA",3-meter foam buoy w/ seal cage,P,N,NDBC,US,3DV57,SCOOP payload,FZUS56.KEKA,
46023,1982,2016,32,2016-01-10T20:13:00Z,34.714,-120.967,"PT ARGUELLO - 17NM WNW of Point Arguello, CA",10-meter discus buoy,P,N,NDBC,US,10D04,DACT payload,FZUS56.KLOX,"<p>NOTICE: The old 10 meter hull&nbsp;went adrift on 2/23/13 and was recovered 3/19/13.<br /></p><p>This station has been disestablished as of 9/8/10. The station is a non-NWS funded station for which the operating agreement between the NWS and the Program Sponsor has expired and will not be renewed.</p><p>In the absence of the station, the NOAA-NDBC directs the user to station&nbsp; <a href=http://www.ndbc.noaa.gov/station_page.php?station=46011>46011 (Santa Maria, CA)</a> which is currently located eleven (11) nautical miles from the disestablished station.</p>"
46024,1982,2016,9,2016-01-10T20:25:00Z,33,-119.2,,10-meter discus buoy,P,N,NDBC,US,,GSBP payload,,
46025,1982,2026,45,2026-02-10T10:50:00Z,33.749,-119.053,"Santa Monica Basin - 33NM WSW of Santa Monica, CA",3-meter discus buoy w/ seal cage,P,N,NDBC,US,3D58,SCOOP payload,FZUS56.KLOX,
46026,1982,2026,45,2026-02-10T10:40:00Z,37.759,-122.833,"SAN FRANCISCO - 18NM West of San Francisco, CA",3-meter foam buoy,P,N,NDBC,US,3DV40,SCOOP payload,FZUS56.KMTR,
46027,1983,2026,44,2026-02-10T10:40:00Z,41.85,-124.381,"ST GEORGES - 8 NM NW of Crescent City, CA",3-meter discus buoy w/ seal cage,P,N,NDBC,US,3D76,SCOOP payload,FZUS56.KMFR,
46028,1983,2026,44,2026-02-10T10:40:00Z,35.741,-121.884,"CAPE SAN MARTIN - 55NM West NW of Morro Bay, CA",3-meter foam buoy w/ seal cage,P,N,NDBC,US,3DV38,SCOOP payload,FZUS56.KMTR,
46029,1984,2026,40,2026-02-10T10:50:00Z,46.144,-124.51,COLUMBIA RIVER BAR - 20NM West of Columbia River Mouth,2.1-meter ionomer foam buoy w/ seal cage,P,N,NDBC,US,2.1D14,SCOOP payload,FZUS56.KPQR,
46030,1984,2002,18,2002-03-31T23:00:00Z,40.423,-124.525,BLUNTS REEF,3-meter discus buoy,P,N,NDBC,US,56,VEEP payload,FZUS56.KEKA,"This station was disestablished during 2002.  The National Weather Service decided to move the station location to Southern Oregon, where it is identified as <a href=/station_page.php?station=46015>46015</a>.  The closest buoy is now <a href=/station_page.php?station=46022>46022</a>."
46031,1984,1985,2,1985-08-13T15:00:00Z,55.5,-161.683,,Platform,P,N,NDBC,US,,,,
46032,1984,1985,2,1985-08-16T21:00:00Z,54.2,-165.8,,MAREX,A,N,NDBC,US,,,,
46033,1984,1985,2,1985-04-30T21:00:00Z,55.783,-159.8,,MAREX,P,N,NDBC,US,,,,
